~VERSION INFORMATION
VERS.                 2.0:   CWLS LOG ASCII STANDARD VERSION 2.0
WRAP.                 YES:   MULTIPLE LINES PER DEPTH STEP
~WELL INFORMATION
#MNEM.UNIT       DATA           DESCRIPTION MNEMONIC
#---------    -------------   --------------------------
STRT.      4199.9428    : 
STOP.      5050.03    : 
STEP.      0.1524    : 
NULL.      -999.0 : 
COMP.      SONATRACH EXPLORATION    : COMPANY
WELL.      Test    : WELL
FLD .      BERKINE     : FIELD
LOC .      X = 666666.0 Y = 7777777.0   : LOCATION
PROV.      ENF-16    : PROVINCE
CNTY.      ENF-16    : 
STAT.      ENF-16    : 
CTRY.      Algeria    : 
SRVC.      SCH    : SERVICE COMPANY
UWI .      W-1     : UNIQUE WELL ID
~CURVE INFORMATION
#MNEM          UNIT     API CODE   Curve Type Comments
#---------- ---------- ----------  ---------- --------
 DEPTH               .M                    : The Depth
 AT10                .ohm.m                :ShalRes    (AIT-M)                 (3in)                   Array Induction Two Foot Resistivity A10
 AT20                .ohm.m                :ShalRes    (AIT-M)                 (3in)                   Array Induction Two Foot Resistivity A20
 AT30                .ohm.m                :MedRes     (AIT-M)                 (3in)                   Array Induction Two Foot Resistivity A30
 AT60                .ohm.m                :MedRes     (AIT-M)                 (3in)                   Array Induction Two Foot Resistivity A60
 AT90                .ohm.m                :XDeepRes   (AIT-M)                 (3in)                   Array Induction Two Foot Resistivity A90
 BS                  .in                   :(Borehole)              (6in)                   Bit Size
 CALI                .in                   :Caliper    (HDRS-H)                (1in)                   Caliper
 CGR                 .gAPI                 :GammaRay   (HNGS-BA)               (6in)                   Gamma Ray Contribution from Thorium and Potassium
 DSOZ                .in                   :(HDRS-H)                (2in)                   Standard Resolution Density Standoff
 DTCO                .us/ft                :Sonic      (DSST-B)                (6in)                   Delta-T Compressional
 DTSM                .us/ft                :ShearSonic (DSST-B)                (6in)                   Delta-T Shear
 GR_CAL              .gAPI                 :GammaRay   (EDTC-B)                (6in)                   Calibrated Gamma Ray
 HDRA                .g/cm3                :Drho       (HDRS-H)                (2in)                   Density Standoff Correction
 HDRB                .g/cm3                :(HDRS-H)                (2in)                   Difference Between Bulk Density (RHOZ) and Apparent Density from Back Scatter Monosensor Inversion (RHBA)
 HPRA                .                     :(HDRS-H)                (2in)                   Photoelectric Factor Correction
 PEFZ                .B/E                  :PEF        (HDRS-H)                (2in)                   Standard Resolution Formation Photoelectric Factor
 POTA                .%                    :Spectral   (HNGS-BA)               (6in)                   Potassium Concentration
 RHOZ                .g/cm3                :Density    (HDRS-H)                (2in)                   Standard Resolution Formation Density
 SGR                 .gAPI                 :GammaRay   (HNGS-BA)               (6in)                   Spectroscopy Gamma Ray
 TENS                .lbf                  :Tension    (WLWorkflow)            (6in)                   Cable Tension
 THOR                .ppm                  :Spectral   (HNGS-BA)               (6in)                   Thorium Concentration
 TNPH                .m3/m3                :Neutron    (HGNS-H)                (6in)                   Thermal Neutron Porosity (Ratio Method) in Selected Lithology
 TPRA                .                     :Temp       (HNGS-BA)               (6in)                   Thorium/Potassium Ratio
 TURA                .                     :Temp       (HNGS-BA)               (6in)                   Thorium/Uranium Ratio
 UPRA                .PPM                  :Spectral   (HNGS-BA)               (6in)                   Uranium/Potassium Ratio
 URAN                .ppm                  :Spectral   (HNGS-BA)               (6in)                   Uranium Concentration
~A Log data section
# ...
4760.0128            51.539               71.6995              75.5663              70.423               73.3434              8.5                  8.394                110.8367             0.0084               66.9165              134.6098             122.5619             -0.0005              0.1929               0.0759               3.7604               2.3472               2.7624               123.7582             5410.4609            21.7686              0.2406               9.2742               10.3631              0.8949               2.1006               
4760.1652            47.3842              64.2151              69.0258              62.1112              63.2769              8.5                  8.3614               114.4974             0.0194               66.9801              134.4675             126.1035             -0.0016              0.182                0.0893               3.7739               2.446                2.7586               128.5377             5415.3843            22.3629              0.2385               9.1426               9.6538               0.947                2.3165               
4760.3176            43.4947              57.8248              60.7819              61.2044              60.5024              8.5                  8.3832               119.0794             0.0307               67.7384              134.6815             133.066              -0.0051              0.1619               0.1179               3.8239               2.5532               2.744                133.3021             5400.5               23.2031              0.2546               9.0877               9.6365               0.943                2.4078               
4760.47              41.6706              54.9371              57.0732              62.2199              59.32                8.5                  8.3614               120.1994             0.0307               67.8712              133.992              137.3117             -0.0045              0.1667               0.1018               3.8141               2.5452               2.7483               131.8929             5410.4609            23.6094              0.2656               9.2762               10.2698              0.9032               2.2989               
4760.6224            40.6834              53.8976              57.7616              60.4006              58.0567              8.5                  8.3723               117.6824             0.0211               67.6138              134.8607             133.6311             -0.0029              0.179                0.0738               3.7674               2.5399               2.7558               129.516              5428.8462            22.8336              0.2532               8.9899               10.3953              0.8648               2.1965               
4760.7748            42.4417              56.0911              61.2934              66.669               63.8805              8.5                  8.3614               111.2236             0                    67.8843              146.3279             125.7855             -0.001               0.1891               0.0446               3.7245               2.4543               2.762                124.293              5411.0771            21.2655              0.249                8.6645               9.2548               0.9362               2.2978               
4760.9272            43.5066              59.2441              66.2898              73.5914              70.0046              8.5                  8.3759               107.2725             0.0126               67.7052              148.13               120.1078             -0.0004              0.185                0.0621               3.7652               2.3589               2.7585               124.7105             5427.25              20.5586              0.2485               8.7155               7.6765               1.1353               2.6781               
4761.0796            44.7491              65.0544              70.5211              77.5748              78.0266              8.5                  8.4049               108.0961             0.0149               68.0636              148.1751             124.1733             0.0011               0.1806               0.0784               3.8236               2.3171               2.7594               121.8141             5469.6914            21.0666              0.2625               9.0916               9.8351               0.9244               2.142                
4761.232             48.2021              65.0284              70.3504              77.1897              78.685               8.5                  8.3723               102.5129             0.0149               67.9376              148.1645             121.8966             0.0017               0.1778               0.065                3.8609               2.2615               2.7641               118.6674             5454.1548            19.6033              0.2519               8.6681               7.3923               1.1726               2.6519               
4761.3844            44.6073              53.6073              59.1415              64.9654              69.6406              8.5                  8.394                96.197               0.0234               68.2348              148.2338             121.0548             -0.0006              0.1721               0.0843               3.948                2.1678               2.764                114.4083             5449.8452            18.1288              0.2491               8.3629               6.2352               1.3412               2.9075               
4761.5368            38.6766              45.5255              49.1543              53.1623              58.145               8.5                  8.4049               101.569              0.0405               68.4368              148.2436             120.1228             -0.005               0.165                0.1301               4.0599               2.3294               2.7571               119.8833             5472.8457            18.9033              0.2411               8.1149               6.682                1.2144               2.829                
4761.6892            34.1139              41.8317              44.903               48.9698              53.59                8.5                  8.3832               109.5082             0.0618               69.3184              148.8117             128.2409             -0.0022              0.169                0.1791               4.1103               2.4406               2.7553               127.0798             5430.4175            20.7964              0.261                8.5211               7.148                1.1921               2.9094               
4761.8416            31.7431              41.9299              42.9686              46.737               51.1308              8.5                  8.4049               113.5121             0.0579               70.4277              150.2081             138.5611             0.0156               0.1795               0.1869               4.0416               2.5325               2.7572               132.7741             5467.5376            21.5411              0.283                8.506                7.029                1.2101               3.0646               
4761.994             31.2134              40.0272              41.3243              46.3004              49.4107              8.5                  8.394                109.6228             0.0424               70.6947              151.6987             139.3178             0.0294               0.1897               0.1678               3.9624               2.538                2.7599               131.073              5489.3848            20.2624              0.3021               7.9835               6.0695               1.3154               3.3384               
4762.1464            30.4784              37.9641              39.826               43.2637              45.5046              8.5                  8.4158               107.0309             0.0501               70.9664              147.0718             141.9623             0.0267               0.182                0.187                4.0187               2.5233               2.7489               130.6402             5470.5391            19.5182              0.2972               7.7353               5.485                1.4103               3.5585               
