~VERSION INFORMATION
VERS.                 2.0:   CWLS LOG ASCII STANDARD VERSION 2.0
WRAP.                 YES:   MULTIPLE LINES PER DEPTH STEP
~WELL INFORMATION
#MNEM.UNIT       DATA           DESCRIPTION MNEMONIC
#---------    -------------   --------------------------
STRT.      4199.9428    : 
STOP.      5050.03    : 
STEP.      0.1524    : 
NULL.      -999.0 : 
COMP.      SONATRACH EXPLORATION    : COMPANY
WELL.      Test    : WELL
FLD .      BERKINE     : FIELD
LOC .      X = 666666.0 Y = 7777777.0   : LOCATION
PROV.      ENF-16    : PROVINCE
CNTY.      ENF-16    : 
STAT.      ENF-16    : 
CTRY.      Algeria    : 
SRVC.      SCH    : SERVICE COMPANY
UWI .      W-1     : UNIQUE WELL ID
~CURVE INFORMATION
#MNEM          UNIT     API CODE   Curve Type Comments
#---------- ---------- ----------  ---------- --------
 DEPTH               .M                    : The Depth
 AT10                .ohm.m                :ShalRes    (AIT-M)                 (3in)                   Array Induction Two Foot Resistivity A10
 AT20                .ohm.m                :ShalRes    (AIT-M)                 (3in)                   Array Induction Two Foot Resistivity A20
 AT30                .ohm.m                :MedRes     (AIT-M)                 (3in)                   Array Induction Two Foot Resistivity A30
 AT60                .ohm.m                :MedRes     (AIT-M)                 (3in)                   Array Induction Two Foot Resistivity A60
 AT90                .ohm.m                :XDeepRes   (AIT-M)                 (3in)                   Array Induction Two Foot Resistivity A90
 BS                  .in                   :(Borehole)              (6in)                   Bit Size
 CALI                .in                   :Caliper    (HDRS-H)                (1in)                   Caliper
 CGR                 .gAPI                 :GammaRay   (HNGS-BA)               (6in)                   Gamma Ray Contribution from Thorium and Potassium
 DSOZ                .in                   :(HDRS-H)                (2in)                   Standard Resolution Density Standoff
 DTCO                .us/ft                :Sonic      (DSST-B)                (6in)                   Delta-T Compressional
 DTSM                .us/ft                :ShearSonic (DSST-B)                (6in)                   Delta-T Shear
 GR_CAL              .gAPI                 :GammaRay   (EDTC-B)                (6in)                   Calibrated Gamma Ray
 HDRA                .g/cm3                :Drho       (HDRS-H)                (2in)                   Density Standoff Correction
 HDRB                .g/cm3                :(HDRS-H)                (2in)                   Difference Between Bulk Density (RHOZ) and Apparent Density from Back Scatter Monosensor Inversion (RHBA)
 HPRA                .                     :(HDRS-H)                (2in)                   Photoelectric Factor Correction
 PEFZ                .B/E                  :PEF        (HDRS-H)                (2in)                   Standard Resolution Formation Photoelectric Factor
 POTA                .%                    :Spectral   (HNGS-BA)               (6in)                   Potassium Concentration
 RHOZ                .g/cm3                :Density    (HDRS-H)                (2in)                   Standard Resolution Formation Density
 SGR                 .gAPI                 :GammaRay   (HNGS-BA)               (6in)                   Spectroscopy Gamma Ray
 TENS                .lbf                  :Tension    (WLWorkflow)            (6in)                   Cable Tension
 THOR                .ppm                  :Spectral   (HNGS-BA)               (6in)                   Thorium Concentration
 TNPH                .m3/m3                :Neutron    (HGNS-H)                (6in)                   Thermal Neutron Porosity (Ratio Method) in Selected Lithology
 TPRA                .                     :Temp       (HNGS-BA)               (6in)                   Thorium/Potassium Ratio
 TURA                .                     :Temp       (HNGS-BA)               (6in)                   Thorium/Uranium Ratio
 UPRA                .PPM                  :Spectral   (HNGS-BA)               (6in)                   Uranium/Potassium Ratio
 URAN                .ppm                  :Spectral   (HNGS-BA)               (6in)                   Uranium Concentration
~A Log data section
# ...
4330.2448            1.7985               1.6305               1.5044               1.8157               2.1702               8.5                  8.3759               57.3157              0.0257               66.0838              115.555              69.9473              -0.0215              0.2564               0.2082               6.6217               0.4268               2.7404               66.8131              4936.7144            15.8611              0.1428               37.162               11.7477              3.1634               1.3501               
4330.3972            2.0102               1.7228               1.6773               1.9471               2.1058               8.5                  8.4158               60.2081              0.0248               65.4952              114.1518             71.9029              -0.012               0.2539               0.1088               6.3521               0.4323               2.7829               71.8028              4955.9336            16.7557              0.1534               38.7621              10.502               3.6909               1.5955               
4330.5496            2.1802               1.7857               1.9678               2.087                2.1154               8.5                  8.4376               64.5678              0.0162               67.8018              114.7057             75.3888              -0.026               0.2538               0.0001               6.2662               0.4869               2.8054               75.8983              4944.8569            17.8321              0.1588               36.6205              10.5071              3.4853               1.6971               
4330.702             2.5694               1.9972               2.1256               2.395                2.0382               8.5                  8.4412               65.0921              0                    66.8894              120.1208             82.1466              -0.0353              0.2548               -0.0485              6.205                0.6453               2.7925               73.6894              4944.2007            17.0728              0.1608               26.4556              13.7394              1.9255               1.2426               
4330.8544            3.0113               2.1543               2.2706               2.4688               2.0644               8.5                  8.4485               56.021               0                    68.2755              122.6501             79.3042              -0.0308              0.262                -0.0671              5.9935               0.6338               2.755                64.0888              4950.7852            14.2346              0.1532               22.4578              11.5814              1.9391               1.2291               
4331.0068            3.5638               2.7127               2.9974               3.0146               2.4474               8.5                  8.3832               54.6008              0                    68.351               129.6675             72.0721              -0.0253              0.262                -0.0313              5.6592               0.7055               2.706                60.4223              4964.0669            13.3601              0.1576               18.9362              14.1623              1.3371               0.9434               
4331.1592            4.8074               3.7645               3.7195               3.923                3.1109               8.5                  8.394                63.1967              0.0149               68.409               132.7155             70.0525              -0.0234              0.2747               -0.0112              5.1839               0.8838               2.6949               72.9635              4959.7866            15.0698              0.1882               17.0502              10.325               1.6514               1.4596               
4331.3116            8.5897               8.3154               10.0911              7.1366               5.0448               8.5                  8.4122               77.1647              0.0139               68.185               125.2456             83.8478              -0.0242              0.2718               0.059                4.6568               1.1013               2.7027               93.1479              4964.3999            18.271               0.2222               16.59                8.1912               2.0253               2.2306               
4331.464             16.4644              10.8623              13.723               10.4995              7.3638               8.5                  8.4049               92.8186              0.0199               67.5926              129.7213             104.575              -0.0125              0.2569               0.0885               4.113                1.3636               2.7183               115.3463             4941.9995            21.7504              0.2429               15.9509              6.6977               2.3816               3.2474               
4331.6164            31.8522              8.7849               13.7829              11.7001              8.6429               8.5                  8.4267               94.2223              0.015                66.9513              133.8588             120.5775             -0.0034              0.2274               0.1201               3.7397               1.453                2.7186               120.6054             4951.9297            21.6761              0.2289               14.9179              5.9228               2.5187               3.6598               
4331.7688            26.4588              9.8585               13.6893              13.9032              8.8839               8.5                  8.4158               95.6132              0.0334               66.6522              134.5017             123.4344             -0.0066              0.1968               0.1383               3.5693               1.5983               2.7077               127.288              4948.8677            21.2715              0.239                13.3092              4.8531               2.7424               4.3831               
4331.9212            23.4807              9.4294               14.831               13.8015              13.5342              8.5                  8.4267               97.0814              0.0273               67.2808              131.5323             125.3491             -0.0058              0.1852               0.1353               3.5287               1.645                2.7028               126.2427             4978.7852            21.468               0.2539               13.0505              5.1745               2.5221               4.1488               
4332.0736            22.786               13.4018              18.8326              17.4394              20.886               8.5                  8.434                95.7138              0.0273               67.269               133.3245             126.781              -0.0057              0.1782               0.1356               3.6027               1.6959               2.6863               125.5257             4986.5342            20.7317              0.2658               12.2246              4.7726               2.5614               4.3439               
4332.226             23.7807              17.3157              22.6651              23.1165              37.371               8.5                  8.4158               94.7335              0                    68.1063              133.985              125.896              -0.0032              0.1943               0.1168               3.7334               1.7764               2.6783               122.2261             5007.3584            19.9464              0.2504               11.2285              4.9482               2.2692               4.031                
4332.3784            22.9706              28.783               36.1164              34.8048              52.7621              8.5                  8.4376               87.5322              0                    67.82                132.5499             122.6025             -0.0025              0.215                0.0985               3.8639               1.6245               2.6751               116.3137             4989.666             18.5289              0.2459               11.4058              4.4335               2.5726               4.1793               
