~VERSION INFORMATION
VERS.                 2.0:   CWLS LOG ASCII STANDARD VERSION 2.0
WRAP.                 YES:   MULTIPLE LINES PER DEPTH STEP
~WELL INFORMATION
#MNEM.UNIT       DATA           DESCRIPTION MNEMONIC
#---------    -------------   --------------------------
STRT.      4199.9428    : 
STOP.      5050.03    : 
STEP.      0.1524    : 
NULL.      -999.0 : 
COMP.      SONATRACH EXPLORATION    : COMPANY
WELL.      Test    : WELL
FLD .      BERKINE     : FIELD
LOC .      X = 666666.0 Y = 7777777.0   : LOCATION
PROV.      ENF-16    : PROVINCE
CNTY.      ENF-16    : 
STAT.      ENF-16    : 
CTRY.      Algeria    : 
SRVC.      SCH    : SERVICE COMPANY
UWI .      W-1     : UNIQUE WELL ID
~CURVE INFORMATION
#MNEM          UNIT     API CODE   Curve Type Comments
#---------- ---------- ----------  ---------- --------
 DEPTH               .M                    : The Depth
 AT10                .ohm.m                :ShalRes    (AIT-M)                 (3in)                   Array Induction Two Foot Resistivity A10
 AT20                .ohm.m                :ShalRes    (AIT-M)                 (3in)                   Array Induction Two Foot Resistivity A20
 AT30                .ohm.m                :MedRes     (AIT-M)                 (3in)                   Array Induction Two Foot Resistivity A30
 AT60                .ohm.m                :MedRes     (AIT-M)                 (3in)                   Array Induction Two Foot Resistivity A60
 AT90                .ohm.m                :XDeepRes   (AIT-M)                 (3in)                   Array Induction Two Foot Resistivity A90
 BS                  .in                   :(Borehole)              (6in)                   Bit Size
 CALI                .in                   :Caliper    (HDRS-H)                (1in)                   Caliper
 CGR                 .gAPI                 :GammaRay   (HNGS-BA)               (6in)                   Gamma Ray Contribution from Thorium and Potassium
 DSOZ                .in                   :(HDRS-H)                (2in)                   Standard Resolution Density Standoff
 DTCO                .us/ft                :Sonic      (DSST-B)                (6in)                   Delta-T Compressional
 DTSM                .us/ft                :ShearSonic (DSST-B)                (6in)                   Delta-T Shear
 GR_CAL              .gAPI                 :GammaRay   (EDTC-B)                (6in)                   Calibrated Gamma Ray
 HDRA                .g/cm3                :Drho       (HDRS-H)                (2in)                   Density Standoff Correction
 HDRB                .g/cm3                :(HDRS-H)                (2in)                   Difference Between Bulk Density (RHOZ) and Apparent Density from Back Scatter Monosensor Inversion (RHBA)
 HPRA                .                     :(HDRS-H)                (2in)                   Photoelectric Factor Correction
 PEFZ                .B/E                  :PEF        (HDRS-H)                (2in)                   Standard Resolution Formation Photoelectric Factor
 POTA                .%                    :Spectral   (HNGS-BA)               (6in)                   Potassium Concentration
 RHOZ                .g/cm3                :Density    (HDRS-H)                (2in)                   Standard Resolution Formation Density
 SGR                 .gAPI                 :GammaRay   (HNGS-BA)               (6in)                   Spectroscopy Gamma Ray
 TENS                .lbf                  :Tension    (WLWorkflow)            (6in)                   Cable Tension
 THOR                .ppm                  :Spectral   (HNGS-BA)               (6in)                   Thorium Concentration
 TNPH                .m3/m3                :Neutron    (HGNS-H)                (6in)                   Thermal Neutron Porosity (Ratio Method) in Selected Lithology
 TPRA                .                     :Temp       (HNGS-BA)               (6in)                   Thorium/Potassium Ratio
 TURA                .                     :Temp       (HNGS-BA)               (6in)                   Thorium/Uranium Ratio
 UPRA                .PPM                  :Spectral   (HNGS-BA)               (6in)                   Uranium/Potassium Ratio
 URAN                .ppm                  :Spectral   (HNGS-BA)               (6in)                   Uranium Concentration
~A Log data section
# ...
4378.2508            5.4767               4.3339               3.8811               3.535                3.5423               8.5                  8.4848               95.1207              0.0368               67.3454              136.9563             120.1655             -0.0035              0.1644               0.1547               5.1805               0.9374               2.7321               114.57               5054.0669            24.9831              0.1826               26.6523              7.6433               3.487                3.2686               
4378.4032            4.4822               3.9419               3.5013               3.1611               3.1138               8.5                  8.492                94.7209              0.0236               66.7615              137.0527             118.8641             -0.0048              0.1412               0.1953               5.2437               0.9264               2.7106               111.8944             5060.6426            24.9194              0.1842               26.8988              8.831                3.0459               2.8218               
4378.5556            4.5663               4.3963               3.8107               3.3537               3.2118               8.5                  8.4703               93.9191              0.0169               66.9358              137.1491             114.0245             -0.0045              0.1433               0.1881               5.3535               1.0147               2.6779               111.6401             5032.8677            24.1458              0.1954               23.7969              8.385                2.838                2.8797               
4378.708             5.1667               4.8718               4.0824               3.5362               3.3038               8.5                  8.4703               87.6763              0.0254               66.0802              141.2045             100.919              0.0069               0.2016               0.1734               5.6504               0.9609               2.6588               105.4977             5053.0713            22.4604              0.1929               23.3736              7.9352               2.9455               2.8305               
4378.8604            6.4561               5.1311               4.4979               3.8324               3.491                8.5                  8.4557               77.8251              0.0618               65.9933              146.6407             89.982               0.0225               0.2705               0.2298               6.0732               0.8798               2.6501               94.8077              5027.0718            19.7794              0.1552               22.4808              7.636                2.9441               2.5903               
4379.0128            9.5752               6.0365               5.1585               4.3134               3.7847               8.5                  8.492                69.1755              0.092                65.5408              152.0769             88.435               0.0345               0.3097               0.3534               6.3555               0.8227               2.6672               88.3613              5022.8657            17.3431              0.1221               21.0801              6.2892               3.3518               2.7576               
4379.1652            12.2728              6.4991               5.7522               4.7322               4.1741               8.5                  8.3614               69.5205              0.0749               65.2292              129.5109             96.9758              0.025                0.2569               0.4399               6.2581               0.7956               2.6505               87.7918              5023.4995            17.6123              0.1164               22.1367              6.5555               3.3768               2.6866               
4379.3176            12.4293              6.3731               5.9557               4.8963               4.3017               8.5                  8.3614               70.4865              0.0861               64.0464              134.1196             108.2628             0.0298               0.1984               0.7301               6.3958               0.8413               2.6226               89.0456              5028.0005            17.654               0.1417               20.9835              6.2814               3.3406               2.8105               
4379.47              12.3591              6.6711               6.1706               5.1025               4.4825               8.5                  8.3505               59.6738              0.117                64.4502              138.7282             113.93               0.045                0.1991               0.6558               6.912                0.7164               2.5803               76.2584              5021.8564            14.9219              0.1597               20.8292              6.1906               3.3647               2.4104               
4379.6224            13.409               7.2032               7.0304               5.7201               5.0221               8.5                  8.4557               47.4825              0.1743               64.5253              126.3844             109.6997             0.0695               0.3087               0.1422               7.9798               0.5734               2.5736               61.7876              5021.3999            11.8535              0.1448               20.6722              5.793                3.5685               2.0462               
4379.7748            14.6728              8.4449               7.775                6.2615               5.5068               8.5                  8.59                 36.6959              0.163                64.1457              124.6169             92.9645              0.0502               0.4067               -0.6287              8.8759               0.4355               2.5441               50.6975              5008.5723            9.2053               0.1364               21.1373              4.95                 4.2702               1.8597               
4379.9272            13.5596              8.8882               8.0892               6.5614               5.8395               8.5                  8.8621               32.2072              0.1312               64.6208              151.683              70.9788              0.013                0.4576               -0.6411              9.4169               0.43                 2.5233               43.5799              5016.7329            7.7996               0.1266               18.1394              5.1785               3.5028               1.5061               
4380.0796            11.4878              8.2433               7.6926               6.4638               5.7797               8.5                  9.029                30.5917              0.1065               66.4793              163.0064             49.9331              -0.0098              0.4594               -0.1628              8.9997               0.4351               2.5257               39.2885              5047.8579            7.252                0.116                16.6667              6.0486               2.7555               1.199                
4380.232             10.4341              8.5215               7.7035               6.5527               5.8563               8.5                  8.9057               30.0289              0.1337               65.9383              158.7596             39.9359              0.0077               0.4751               0.427                8.1917               0.4055               2.581                39.8472              5063.999             7.2448               0.1133               17.865               5.1565               3.4646               1.405                
4380.3844            10.4166              8.5493               7.8285               6.7994               6.097                8.5                  8.3687               40.0289              0.1788               64.7135              154.5128             41.2071              0.0465               0.5098               0.5242               7.3926               0.6032               2.6424               53.6203              5059.7861            9.2911               0.1133               15.4044              4.7961               3.2118               1.9372               
