~VERSION INFORMATION
VERS.                 2.0:   CWLS LOG ASCII STANDARD VERSION 2.0
WRAP.                 YES:   MULTIPLE LINES PER DEPTH STEP
~WELL INFORMATION
#MNEM.UNIT       DATA           DESCRIPTION MNEMONIC
#---------    -------------   --------------------------
STRT.      4199.9428    : 
STOP.      5050.03    : 
STEP.      0.1524    : 
NULL.      -999.0 : 
COMP.      SONATRACH EXPLORATION    : COMPANY
WELL.      Test    : WELL
FLD .      BERKINE     : FIELD
LOC .      X = 666666.0 Y = 7777777.0   : LOCATION
PROV.      ENF-16    : PROVINCE
CNTY.      ENF-16    : 
STAT.      ENF-16    : 
CTRY.      Algeria    : 
SRVC.      SCH    : SERVICE COMPANY
UWI .      W-1     : UNIQUE WELL ID
~CURVE INFORMATION
#MNEM          UNIT     API CODE   Curve Type Comments
#---------- ---------- ----------  ---------- --------
 DEPTH               .M                    : The Depth
 AT10                .ohm.m                :ShalRes    (AIT-M)                 (3in)                   Array Induction Two Foot Resistivity A10
 AT20                .ohm.m                :ShalRes    (AIT-M)                 (3in)                   Array Induction Two Foot Resistivity A20
 AT30                .ohm.m                :MedRes     (AIT-M)                 (3in)                   Array Induction Two Foot Resistivity A30
 AT60                .ohm.m                :MedRes     (AIT-M)                 (3in)                   Array Induction Two Foot Resistivity A60
 AT90                .ohm.m                :XDeepRes   (AIT-M)                 (3in)                   Array Induction Two Foot Resistivity A90
 BS                  .in                   :(Borehole)              (6in)                   Bit Size
 CALI                .in                   :Caliper    (HDRS-H)                (1in)                   Caliper
 CGR                 .gAPI                 :GammaRay   (HNGS-BA)               (6in)                   Gamma Ray Contribution from Thorium and Potassium
 DSOZ                .in                   :(HDRS-H)                (2in)                   Standard Resolution Density Standoff
 DTCO                .us/ft                :Sonic      (DSST-B)                (6in)                   Delta-T Compressional
 DTSM                .us/ft                :ShearSonic (DSST-B)                (6in)                   Delta-T Shear
 GR_CAL              .gAPI                 :GammaRay   (EDTC-B)                (6in)                   Calibrated Gamma Ray
 HDRA                .g/cm3                :Drho       (HDRS-H)                (2in)                   Density Standoff Correction
 HDRB                .g/cm3                :(HDRS-H)                (2in)                   Difference Between Bulk Density (RHOZ) and Apparent Density from Back Scatter Monosensor Inversion (RHBA)
 HPRA                .                     :(HDRS-H)                (2in)                   Photoelectric Factor Correction
 PEFZ                .B/E                  :PEF        (HDRS-H)                (2in)                   Standard Resolution Formation Photoelectric Factor
 POTA                .%                    :Spectral   (HNGS-BA)               (6in)                   Potassium Concentration
 RHOZ                .g/cm3                :Density    (HDRS-H)                (2in)                   Standard Resolution Formation Density
 SGR                 .gAPI                 :GammaRay   (HNGS-BA)               (6in)                   Spectroscopy Gamma Ray
 TENS                .lbf                  :Tension    (WLWorkflow)            (6in)                   Cable Tension
 THOR                .ppm                  :Spectral   (HNGS-BA)               (6in)                   Thorium Concentration
 TNPH                .m3/m3                :Neutron    (HGNS-H)                (6in)                   Thermal Neutron Porosity (Ratio Method) in Selected Lithology
 TPRA                .                     :Temp       (HNGS-BA)               (6in)                   Thorium/Potassium Ratio
 TURA                .                     :Temp       (HNGS-BA)               (6in)                   Thorium/Uranium Ratio
 UPRA                .PPM                  :Spectral   (HNGS-BA)               (6in)                   Uranium/Potassium Ratio
 URAN                .ppm                  :Spectral   (HNGS-BA)               (6in)                   Uranium Concentration
~A Log data section
# ...
4664.0008            26.2559              16.5946              18.5199              13.6949              21.8843              8.5                  8.3723               75.4314              0.0257               61.7958              131.9405             100.7903             -0.0041              0.2017               0.1001               3.0942               1.1225               2.6364               93.4482              5265.7495            17.5943              0.116                15.6744              6.8393               2.2918               2.5725               
4664.1532            23.8465              14.9592              16.6803              12.3498              18.9399              8.5                  8.3832               67.5184              0.0257               62.0414              130.0498             90.8419              -0.0033              0.1963               0.0936               2.9773               0.9458               2.6134               84.8892              5307.9233            16.0936              0.1039               17.0155              6.3393               2.6841               2.5387               
4664.3056            21.7334              14.1897              15.7648              11.6602              16.7506              8.5                  8.3832               59.4881              0.0355               63.1774              135.0079             80.67                -0.0045              0.1879               0.0944               2.8319               0.8195               2.5917               75.3917              5305.001             14.2605              0.0976               17.4017              6.0723               2.8658               2.3485               
4664.458             20.2413              13.8258              14.6413              10.2607              14.1253              8.5                  8.3723               53.8405              0.0208               63.5532              138.8056             69.6681              -0.0036              0.1955               0.0722               2.7142               0.7106               2.5879               67.2936              5329.1543            13.0887              0.1034               18.419               6.6734               2.7601               1.9613               
4664.6104            18.1266              13.2262              13.568               9.273                12.2575              8.5                  8.3687               52.1807              0.0278               63.9323              130.377              61.5965              -0.0015              0.2014               0.0557               2.6713               0.6916               2.5796               63.7519              5336.4609            12.6685              0.106                18.3185              7.2794               2.5165               1.7403               
4664.7628            17.1325              12.8176              12.6884              8.6812               10.8781              8.5                  8.3723               47.8092              0.0245               64.2252              128.3146             52.8032              -0.0003              0.1909               0.0504               2.6389               0.6026               2.5537               58.9175              5316.7495            11.7888              0.0968               19.5636              6.7726               2.8886               1.7407               
4664.9152            15.1441              12.3978              11.9224              8.0454               9.8365               8.5                  8.3832               39.9976              0.0245               64.5799              131.5772             51.2652              -0.0001              0.1763               0.0452               2.5861               0.4894               2.5264               51.0083              5321.6143            9.9487               0.0849               20.3272              5.8991               3.4458               1.6865               
4665.0676            14.5495              11.6118              11.2281              7.7741               9.0986               8.5                  8.3832               37.3685              0                    64.2028              133.0937             49.0669              -0.0033              0.1591               0.0718               2.5964               0.5102               2.4997               47.0619              5304.0005            8.9845               0.085                17.6083              6.2298               2.8264               1.4422               
4665.22              14.2561              11.1936              11.2005              7.8384               8.883                8.5                  8.3614               37.3575              0                    64.2444              133.5247             51.7325              -0.0033              0.1682               0.0654               2.6404               0.5015               2.5028               48.0594              5276.9224            9.0324               0.0859               18.0128              5.9398               3.0326               1.5207               
4665.3724            14.0108              10.9798              11.2478              8.3626               8.8542               8.5                  8.3505               36.9442              0                    63.5423              125.247              52.5968              -0.0042              0.1678               0.0834               2.7435               0.5026               2.5071               48.4063              5291.2495            8.8935               0.0898               17.6962              5.4301               3.2589               1.6378               
4665.5248            14.594               10.4581              11.7756              9.3501               9.2749               8.5                  8.3614               43.0055              0.069                63.6448              122.1273             66.7228              -0.0052              0.1619               0.0876               2.8398               0.5732               2.5254               55.3654              5283.6934            10.4218              0.0929               18.1822              6.0863               2.9874               1.7124               
4665.6772            14.3469              9.3274               11.7677              10.3173              10.4569              8.5                  8.3723               56.4168              0.0368               62.8501              126.8284             81.074               -0.0062              0.1548               0.0948               2.9481               0.7541               2.5604               73.1744              5261.5005            13.6593              0.0986               18.113               5.883                3.0789               2.3218               
4665.8296            18.0486              10.8012              14.7287              14.5996              10.9745              8.5                  8.394                64.1766              0.0547               62.5139              126.6298             82.4841              -0.0072              0.1497               0.1096               3.0457               0.8706               2.6                  84.2477              5281.4614            15.4633              0.1066               17.7616              5.6408               3.1488               2.7413               
4665.982             31.6673              12.0438              21.4978              19.5878              20.6687              8.5                  8.4267               62.4482              0.0349               61.8747              139.1402             65.93                -0.0052              0.1524               0.0894               3.0389               0.8197               2.63                 78.8061              5273.166             15.2073              0.094                18.5516              7.1341               2.6004               2.1316               
4666.1344            20.5226              10.0252              13.0241              13.277               15.2427              8.5                  8.4158               45.8054              0.0271               62.3101              142.7304             51.5108              -0.0046              0.1579               0.0853               3.0394               0.6317               2.628                60.4219              5282.0771            10.9763              0.0818               17.3757              5.8323               2.9792               1.882                
