~VERSION INFORMATION
VERS.                 2.0:   CWLS LOG ASCII STANDARD VERSION 2.0
WRAP.                 YES:   MULTIPLE LINES PER DEPTH STEP
~WELL INFORMATION
#MNEM.UNIT       DATA           DESCRIPTION MNEMONIC
#---------    -------------   --------------------------
STRT.      4199.9428    : 
STOP.      5050.03    : 
STEP.      0.1524    : 
NULL.      -999.0 : 
COMP.      SONATRACH EXPLORATION    : COMPANY
WELL.      Test    : WELL
FLD .      BERKINE     : FIELD
LOC .      X = 666666.0 Y = 7777777.0   : LOCATION
PROV.      ENF-16    : PROVINCE
CNTY.      ENF-16    : 
STAT.      ENF-16    : 
CTRY.      Algeria    : 
SRVC.      SCH    : SERVICE COMPANY
UWI .      W-1     : UNIQUE WELL ID
~CURVE INFORMATION
#MNEM          UNIT     API CODE   Curve Type Comments
#---------- ---------- ----------  ---------- --------
 DEPTH               .M                    : The Depth
 AT10                .ohm.m                :ShalRes    (AIT-M)                 (3in)                   Array Induction Two Foot Resistivity A10
 AT20                .ohm.m                :ShalRes    (AIT-M)                 (3in)                   Array Induction Two Foot Resistivity A20
 AT30                .ohm.m                :MedRes     (AIT-M)                 (3in)                   Array Induction Two Foot Resistivity A30
 AT60                .ohm.m                :MedRes     (AIT-M)                 (3in)                   Array Induction Two Foot Resistivity A60
 AT90                .ohm.m                :XDeepRes   (AIT-M)                 (3in)                   Array Induction Two Foot Resistivity A90
 BS                  .in                   :(Borehole)              (6in)                   Bit Size
 CALI                .in                   :Caliper    (HDRS-H)                (1in)                   Caliper
 CGR                 .gAPI                 :GammaRay   (HNGS-BA)               (6in)                   Gamma Ray Contribution from Thorium and Potassium
 DSOZ                .in                   :(HDRS-H)                (2in)                   Standard Resolution Density Standoff
 DTCO                .us/ft                :Sonic      (DSST-B)                (6in)                   Delta-T Compressional
 DTSM                .us/ft                :ShearSonic (DSST-B)                (6in)                   Delta-T Shear
 GR_CAL              .gAPI                 :GammaRay   (EDTC-B)                (6in)                   Calibrated Gamma Ray
 HDRA                .g/cm3                :Drho       (HDRS-H)                (2in)                   Density Standoff Correction
 HDRB                .g/cm3                :(HDRS-H)                (2in)                   Difference Between Bulk Density (RHOZ) and Apparent Density from Back Scatter Monosensor Inversion (RHBA)
 HPRA                .                     :(HDRS-H)                (2in)                   Photoelectric Factor Correction
 PEFZ                .B/E                  :PEF        (HDRS-H)                (2in)                   Standard Resolution Formation Photoelectric Factor
 POTA                .%                    :Spectral   (HNGS-BA)               (6in)                   Potassium Concentration
 RHOZ                .g/cm3                :Density    (HDRS-H)                (2in)                   Standard Resolution Formation Density
 SGR                 .gAPI                 :GammaRay   (HNGS-BA)               (6in)                   Spectroscopy Gamma Ray
 TENS                .lbf                  :Tension    (WLWorkflow)            (6in)                   Cable Tension
 THOR                .ppm                  :Spectral   (HNGS-BA)               (6in)                   Thorium Concentration
 TNPH                .m3/m3                :Neutron    (HGNS-H)                (6in)                   Thermal Neutron Porosity (Ratio Method) in Selected Lithology
 TPRA                .                     :Temp       (HNGS-BA)               (6in)                   Thorium/Potassium Ratio
 TURA                .                     :Temp       (HNGS-BA)               (6in)                   Thorium/Uranium Ratio
 UPRA                .PPM                  :Spectral   (HNGS-BA)               (6in)                   Uranium/Potassium Ratio
 URAN                .ppm                  :Spectral   (HNGS-BA)               (6in)                   Uranium Concentration
~A Log data section
# ...
4615.9948            0.8363               0.6948               0.6455               0.6056               0.6023               8.5                  8.1763               30.733               0.0452               81.8165              140.603              47.5634              0.0019               0.2445               0.3293               8.8839               0.2899               2.4434               42.8357              5245.584             8.1486               0.1961               28.1099              5.4324               5.1745               1.5                  
4616.1472            0.8701               0.7134               0.6464               0.6193               0.6008               8.5                  8.1655               29.9089              0.0624               80.1117              139.96               47.5691              0.0042               0.296                0.4229               9.1813               0.2666               2.4748               43.101               5237.3853            8.0212               0.1923               30.0928              4.7409               6.3475               1.6919               
4616.2996            0.9211               0.7352               0.6576               0.6347               0.6126               8.5                  8.1655               29.5067              0.0758               78.6644              133.6578             48.4895              0.0129               0.3063               0.4576               8.9137               0.2506               2.4726               41.9266              5236.5825            7.9857               0.188                31.8647              5.2379               6.0835               1.5246               
4616.452             1.0031               0.7766               0.6873               0.6548               0.6223               8.5                  8.2634               31.386               0.0856               80.4757              132.2635             46.2326              0.0252               0.2975               0.4326               8.4135               0.2433               2.4654               43.2251              5203.0005            8.6307               0.2026               35.4741              6.0833               5.8314               1.4188               
4616.6044            1.0963               0.8203               0.7214               0.6744               0.6289               8.5                  8.2308               31.8907              0.0939               82.1196              136.6607             44.0872              0.0355               0.3014               0.3588               7.9875               0.2214               2.4847               44.1732              5248.7495            8.9207               0.2061               40.2992              6.1165               6.5886               1.4585               
4616.7568            1.1998               0.8666               0.7556               0.7069               0.6412               8.5                  8.2634               33.4174              0.0938               81.6535              132.9996             42.5221              0.0341               0.3018               0.3742               7.799                0.1967               2.504                46.9524              5204.77              9.5541               0.2087               48.566               5.4481               8.9143               1.7537               
4616.9092            1.2549               0.8907               0.7677               0.7099               0.6683               8.5                  8.2852               34.3937              0.0847               79.9443              131.5618             47.6375              0.0248               0.2882               0.3666               7.6526               0.1629               2.499                45.6958              5215.084             10.0648              0.2138               61.7831              6.7462               9.1582               1.4919               
4617.0616            1.3038               0.8936               0.7768               0.7121               0.6802               8.5                  8.2961               35.0196              0.0738               79.2228              130.9454             52.1965              0.0172               0.265                0.316                7.5507               0.1595               2.47                 46.1908              5211.9233            10.2855              0.2217               64.5013              6.955                9.2741               1.4789               
4617.214             1.2302               0.8261               0.7143               0.6603               0.6381               8.5                  8.307                35.6779              0.0686               77.8936              130.0208             56.1602              0.016                0.2493               0.2301               7.5016               0.173                2.4423               46.7345              5226.2505            10.417               0.2213               60.2003              7.4488               8.0819               1.3985               
4617.3664            1.1666               0.753                0.6608               0.6106               0.6026               8.5                  8.2199               37.6985              0.0721               78.1236              130.0208             53.1962              0.02                 0.2462               0.2462               7.4845               0.2196               2.431                47.7354              5214.749             10.7915              0.2017               49.133               8.1886               6.0002               1.3179               
4617.5188            1.1221               0.7613               0.6633               0.6162               0.6119               8.5                  8.2416               38.1488              0.074                76.5069              131.4863             52.6572              0.0225               0.2475               0.3047               7.3072               0.1588               2.4304               46.453               5204.5386            11.292               0.1982               71.1144              9.8904               7.1902               1.1417               
4617.6712            1.2749               0.8415               0.7236               0.6669               0.6633               8.5                  8.2416               33.8408              0.0663               77.3854              132.9518             50.3437              0.0182               0.2407               0.3791               7.0317               0.1468               2.4239               41.2738              5182.6914            9.9823               0.2029               68.0196              9.0406               7.5238               1.1042               
4617.8236            1.5264               0.9643               0.8189               0.7352               0.7006               8.5                  8.3287               32.4074              0.0521               76.2393              134.4172             46.1607              0.0121               0.2359               0.3635               6.7762               0.157                2.42                 39.1041              5222.168             9.4628               0.1973               60.2541              9.803                6.1465               0.9653               
4617.976             1.9358               1.0877               0.9119               0.807                0.7509               8.5                  8.2961               31.7028              0.0449               76.0623              135.8827             43.2878              0.0084               0.2381               0.3571               6.751                0.165                2.427                38.338               5199.5386            9.1906               0.1774               55.7102              9.1416               6.0941               1.0054               
4618.1284            2.3969               1.2031               0.9953               0.8524               0.767                8.5                  8.2634               30.0778              0.0357               76.2188              137.3481             40.3042              0.0061               0.2208               0.3647               6.8207               0.1487               2.4232               38.8066              5214.25              8.7655               0.1618               58.9631              6.8281               8.6353               1.2837               
