~VERSION INFORMATION
VERS.                 2.0:   CWLS LOG ASCII STANDARD VERSION 2.0
WRAP.                 YES:   MULTIPLE LINES PER DEPTH STEP
~WELL INFORMATION
#MNEM.UNIT       DATA           DESCRIPTION MNEMONIC
#---------    -------------   --------------------------
STRT.      4199.9428    : 
STOP.      5050.03    : 
STEP.      0.1524    : 
NULL.      -999.0 : 
COMP.      SONATRACH EXPLORATION    : COMPANY
WELL.      Test    : WELL
FLD .      BERKINE     : FIELD
LOC .      X = 666666.0 Y = 7777777.0   : LOCATION
PROV.      ENF-16    : PROVINCE
CNTY.      ENF-16    : 
STAT.      ENF-16    : 
CTRY.      Algeria    : 
SRVC.      SCH    : SERVICE COMPANY
UWI .      W-1     : UNIQUE WELL ID
~CURVE INFORMATION
#MNEM          UNIT     API CODE   Curve Type Comments
#---------- ---------- ----------  ---------- --------
 DEPTH               .M                    : The Depth
 AT10                .ohm.m                :ShalRes    (AIT-M)                 (3in)                   Array Induction Two Foot Resistivity A10
 AT20                .ohm.m                :ShalRes    (AIT-M)                 (3in)                   Array Induction Two Foot Resistivity A20
 AT30                .ohm.m                :MedRes     (AIT-M)                 (3in)                   Array Induction Two Foot Resistivity A30
 AT60                .ohm.m                :MedRes     (AIT-M)                 (3in)                   Array Induction Two Foot Resistivity A60
 AT90                .ohm.m                :XDeepRes   (AIT-M)                 (3in)                   Array Induction Two Foot Resistivity A90
 BS                  .in                   :(Borehole)              (6in)                   Bit Size
 CALI                .in                   :Caliper    (HDRS-H)                (1in)                   Caliper
 CGR                 .gAPI                 :GammaRay   (HNGS-BA)               (6in)                   Gamma Ray Contribution from Thorium and Potassium
 DSOZ                .in                   :(HDRS-H)                (2in)                   Standard Resolution Density Standoff
 DTCO                .us/ft                :Sonic      (DSST-B)                (6in)                   Delta-T Compressional
 DTSM                .us/ft                :ShearSonic (DSST-B)                (6in)                   Delta-T Shear
 GR_CAL              .gAPI                 :GammaRay   (EDTC-B)                (6in)                   Calibrated Gamma Ray
 HDRA                .g/cm3                :Drho       (HDRS-H)                (2in)                   Density Standoff Correction
 HDRB                .g/cm3                :(HDRS-H)                (2in)                   Difference Between Bulk Density (RHOZ) and Apparent Density from Back Scatter Monosensor Inversion (RHBA)
 HPRA                .                     :(HDRS-H)                (2in)                   Photoelectric Factor Correction
 PEFZ                .B/E                  :PEF        (HDRS-H)                (2in)                   Standard Resolution Formation Photoelectric Factor
 POTA                .%                    :Spectral   (HNGS-BA)               (6in)                   Potassium Concentration
 RHOZ                .g/cm3                :Density    (HDRS-H)                (2in)                   Standard Resolution Formation Density
 SGR                 .gAPI                 :GammaRay   (HNGS-BA)               (6in)                   Spectroscopy Gamma Ray
 TENS                .lbf                  :Tension    (WLWorkflow)            (6in)                   Cable Tension
 THOR                .ppm                  :Spectral   (HNGS-BA)               (6in)                   Thorium Concentration
 TNPH                .m3/m3                :Neutron    (HGNS-H)                (6in)                   Thermal Neutron Porosity (Ratio Method) in Selected Lithology
 TPRA                .                     :Temp       (HNGS-BA)               (6in)                   Thorium/Potassium Ratio
 TURA                .                     :Temp       (HNGS-BA)               (6in)                   Thorium/Uranium Ratio
 UPRA                .PPM                  :Spectral   (HNGS-BA)               (6in)                   Uranium/Potassium Ratio
 URAN                .ppm                  :Spectral   (HNGS-BA)               (6in)                   Uranium Concentration
~A Log data section
# ...
4426.2568            30.3249              30.3577              30.0716              27.5659              27.4624              8.5                  8.3832               71.4218              0.0672               61.8609              128.8349             79.8095              -0.008               0.167                0.1014               2.7816               1.1289               2.6345               89.2956              5124.8662            16.2734              0.0741               14.4155              6.7593               2.1327               2.4076               
4426.4092            28.5493              27.8863              30.3787              27.3352              28.9188              8.5                  8.394                79.09                0.0937               61.4723              128.5795             101.5255             -0.0072              0.1626               0.1189               2.8074               1.2689               2.6509               97.2378              5101.2856            17.9106              0.0693               14.1154              7.1193               1.9827               2.5158               
4426.5616            28.6337              27.1102              30.2951              27.6444              27.7503              8.5                  8.4049               78.7149              0.0926               61.3007              128.3242             107.2201             -0.0035              0.1718               0.1195               2.7736               1.2515               2.6573               99.7453              5085.666             17.8924              0.064                14.2971              6.2853               2.2747               2.8467               
4426.714             27.798               27.3248              30.9865              27.5912              27.814               8.5                  8.394                75.0316              0.0966               61.6535              128.0689             101.3878             -0.0036              0.1659               0.121                2.739                1.2736               2.6368               94.5098              5087.6421            16.5832              0.061                13.0212              6.2742               2.0754               2.6431               
4426.8664            25.9499              26.391               28.9961              25.8612              27.1364              8.5                  8.3723               66.5815              0.0705               62.5046              127.8136             77.6559              -0.0046              0.1612               0.1104               2.7292               1.1634               2.6202               80.6011              5067                 14.521               0.0622               12.4817              7.7696               1.6065               1.869                
4427.0188            22.562               23.0801              25.3157              22.5772              24.2619              8.5                  8.3505               53.6585              0.056                62.5842              127.5583             62.7829              -0.0062              0.1566               0.1087               2.7827               0.9326               2.6132               65.2564              5058.9995            11.7319              0.0731               12.5802              7.8435               1.6039               1.4957               
4427.1712            18.7079              19.293               21.216               18.9061              20.9746              8.5                  8.3614               49.5143              0                    62.4477              127.3029             60.9028              -0.0031              0.1726               0.0758               2.8535               0.87                 2.6329               61.7879              5067.8008            10.7703              0.0936               12.3793              6.914                1.7905               1.5578               
4427.3236            16.4667              16.636               18.0842              16.0084              18.2057              8.5                  8.3614               53.8465              0                    62.7565              127.0476             76.1651              -0.001               0.193                0.024                2.9089               0.9563               2.6542               70.4081              5074.2144            11.6531              0.1223               12.1855              5.5746               2.1859               2.0904               
4427.476             16.4795              16.3708              17.5396              15.2909              17.8082              8.5                  8.3759               59.2727              0.0103               62.9784              126.7923             87.9397              -0.0008              0.1999               0.013                2.9343               1.0065               2.6549               78.5472              5080.8013            13.0976              0.1203               13.0129              5.1585               2.5226               2.539                
4427.6284            17.1545              16.8065              17.8647              15.3474              18.4017              8.5                  8.3614               53.4623              0.0103               62.1419              126.537              87.8519              -0.001               0.1983               0.0234               2.8808               0.9566               2.6436               75.1857              5096.4009            11.5281              0.102                12.0507              3.952                3.0492               2.917                
4427.7808            16.9275              16.589               17.6098              15.0181              18.3621              8.5                  8.3723               51.2753              0.0103               62.0129              126.2816             73.6246              -0.0028              0.187                0.0679               2.8156               0.939                2.6274               69.7397              5071.501             10.9307              0.0896               11.6408              4.4238               2.6314               2.4709               
4427.9332            17.1616              16.7174              17.6796              14.7362              18.011               8.5                  8.3832               50.7932              0.028                61.2332              126.0263             69.6973              -0.0045              0.1831               0.0719               2.761                0.8831               2.6277               65.1369              5079.4995            11.1033              0.0906               12.5724              5.7154               2.1997               1.9427               
4428.0856            17.7715              16.9297              17.9584              14.846               18.3745              8.5                  8.3832               54.2272              0.0363               62.6839              125.771              76.5908              -0.0059              0.1784               0.0977               2.8274               0.9786               2.6345               68.8127              5065.7998            11.6445              0.103                11.8987              5.9292               2.0068               1.9639               
4428.238             18.7562              18.0456              18.8316              15.3576              19.4904              8.5                  8.3832               62.8521              0.0363               63.664               125.5157             88.4183              -0.0061              0.1759               0.1222               2.9682               1.1369               2.6457               76.4433              5063.2144            13.4809              0.1252               11.8572              7.1095               1.6678               1.8962               
4428.3904            20.885               20.0922              21.2692              16.771               21.5922              8.5                  8.3832               71.2731              0.0411               64.2206              125.2603             96.8598              -0.0065              0.1724               0.1406               3.1182               1.3226               2.655                86.0103              5076.7344            15.0918              0.1497               11.4107              7.3231               1.5582               2.0609               
