~VERSION INFORMATION
VERS.                 2.0:   CWLS LOG ASCII STANDARD VERSION 2.0
WRAP.                 YES:   MULTIPLE LINES PER DEPTH STEP
~WELL INFORMATION
#MNEM.UNIT       DATA           DESCRIPTION MNEMONIC
#---------    -------------   --------------------------
STRT.      4199.9428    : 
STOP.      5050.03    : 
STEP.      0.1524    : 
NULL.      -999.0 : 
COMP.      SONATRACH EXPLORATION    : COMPANY
WELL.      Test    : WELL
FLD .      BERKINE     : FIELD
LOC .      X = 666666.0 Y = 7777777.0   : LOCATION
PROV.      ENF-16    : PROVINCE
CNTY.      ENF-16    : 
STAT.      ENF-16    : 
CTRY.      Algeria    : 
SRVC.      SCH    : SERVICE COMPANY
UWI .      W-1     : UNIQUE WELL ID
~CURVE INFORMATION
#MNEM          UNIT     API CODE   Curve Type Comments
#---------- ---------- ----------  ---------- --------
 DEPTH               .M                    : The Depth
 AT10                .ohm.m                :ShalRes    (AIT-M)                 (3in)                   Array Induction Two Foot Resistivity A10
 AT20                .ohm.m                :ShalRes    (AIT-M)                 (3in)                   Array Induction Two Foot Resistivity A20
 AT30                .ohm.m                :MedRes     (AIT-M)                 (3in)                   Array Induction Two Foot Resistivity A30
 AT60                .ohm.m                :MedRes     (AIT-M)                 (3in)                   Array Induction Two Foot Resistivity A60
 AT90                .ohm.m                :XDeepRes   (AIT-M)                 (3in)                   Array Induction Two Foot Resistivity A90
 BS                  .in                   :(Borehole)              (6in)                   Bit Size
 CALI                .in                   :Caliper    (HDRS-H)                (1in)                   Caliper
 CGR                 .gAPI                 :GammaRay   (HNGS-BA)               (6in)                   Gamma Ray Contribution from Thorium and Potassium
 DSOZ                .in                   :(HDRS-H)                (2in)                   Standard Resolution Density Standoff
 DTCO                .us/ft                :Sonic      (DSST-B)                (6in)                   Delta-T Compressional
 DTSM                .us/ft                :ShearSonic (DSST-B)                (6in)                   Delta-T Shear
 GR_CAL              .gAPI                 :GammaRay   (EDTC-B)                (6in)                   Calibrated Gamma Ray
 HDRA                .g/cm3                :Drho       (HDRS-H)                (2in)                   Density Standoff Correction
 HDRB                .g/cm3                :(HDRS-H)                (2in)                   Difference Between Bulk Density (RHOZ) and Apparent Density from Back Scatter Monosensor Inversion (RHBA)
 HPRA                .                     :(HDRS-H)                (2in)                   Photoelectric Factor Correction
 PEFZ                .B/E                  :PEF        (HDRS-H)                (2in)                   Standard Resolution Formation Photoelectric Factor
 POTA                .%                    :Spectral   (HNGS-BA)               (6in)                   Potassium Concentration
 RHOZ                .g/cm3                :Density    (HDRS-H)                (2in)                   Standard Resolution Formation Density
 SGR                 .gAPI                 :GammaRay   (HNGS-BA)               (6in)                   Spectroscopy Gamma Ray
 TENS                .lbf                  :Tension    (WLWorkflow)            (6in)                   Cable Tension
 THOR                .ppm                  :Spectral   (HNGS-BA)               (6in)                   Thorium Concentration
 TNPH                .m3/m3                :Neutron    (HGNS-H)                (6in)                   Thermal Neutron Porosity (Ratio Method) in Selected Lithology
 TPRA                .                     :Temp       (HNGS-BA)               (6in)                   Thorium/Potassium Ratio
 TURA                .                     :Temp       (HNGS-BA)               (6in)                   Thorium/Uranium Ratio
 UPRA                .PPM                  :Spectral   (HNGS-BA)               (6in)                   Uranium/Potassium Ratio
 URAN                .ppm                  :Spectral   (HNGS-BA)               (6in)                   Uranium Concentration
~A Log data section
# ...
4808.0188            57.0784              75.9211              76.8752              72.6903              69.5306              8.5                  8.3832               91.9154              0.023                62.8825              138.6294             122.3222             -0.0039              0.2332               0.097                3.2218               1.8899               2.7229               116.8409             5507.1538            18.3915              0.1539               9.7315               4.8845               1.9923               3.7652               
4808.1712            58.1924              77.5199              78.7707              73.9383              72.692               8.5                  8.4049               85.5513              0.023                62.6889              137.1115             118.941              -0.0039              0.2319               0.0914               3.2087               1.8573               2.717                113.5117             5520.3071            16.543               0.1453               8.9071               4.1068               2.1689               4.0282               
4808.3236            59.4197              79.6772              80.7984              75.5239              76.0988              8.5                  8.394                91.4366              0.023                62.1965              136.3925             124.4114             -0.0034              0.2342               0.0763               3.202                1.994                2.7172               116.6785             5500.1533            17.6289              0.1399               8.8412               4.7765               1.851                3.6907               
4808.476             58.0129              75.8641              78.8107              74.7262              77.3329              8.5                  8.4811               91.0698              0.0239               62.1883              133.1207             123.3281             -0.0033              0.2355               0.0733               3.2114               1.9534               2.7189               118.6258             5498.3076            17.7488              0.1391               9.0861               4.5088               2.0152               3.9365               
4808.6284            54.5712              69.3154              71.3103              72.4297              72.9576              8.5                  8.4267               94.7274              0.0345               62.9527              129.849              130.36               -0.0057              0.2282               0.1009               3.2462               1.8894               2.7143               120.4966             5498.8335            19.2959              0.1487               10.2129              5.1706               1.9752               3.7318               
4808.7808            51.0902              64.8219              67.857               69.8581              70.6307              8.5                  8.4158               94.3242              0.0385               63.1788              126.5772             127.1488             -0.0072              0.2241               0.1351               3.2931               1.8675               2.7143               120.5044             5490.6934            19.2947              0.1628               10.3319              5.2399               1.9718               3.6823               
4808.9332            49.515               66.3287              69.432               74.5356              73.3239              8.5                  8.394                94.3122              0.0539               63.4771              123.3055             127.5868             -0.0089              0.2198               0.1532               3.3318               1.8548               2.7147               122.8843             5507.001             19.3652              0.1821               10.4407              4.8318               2.1609               4.0079               
4809.0856            52.7753              71.4405              73.6516              81.0236              80.9445              8.5                  8.394                99.4136              0.0512               63.4303              120.0338             131.3397             -0.0085              0.221                0.1503               3.3539               1.9506               2.7192               124.3978             5467.5376            20.4392              0.1875               10.4785              5.7447               1.824                3.5579               
4809.238             55.5485              79.7479              81.5259              86.3493              86.6393              8.5                  8.4376               102.8816             0.0611               63.3623              116.762              139.6311             -0.0093              0.2165               0.158                3.3641               1.9692               2.714                123.6973             5496.0771            21.4415              0.1794               10.8885              6.9697               1.5623               3.0764               
4809.3904            60.5363              85.4626              87.2941              90.7734              91.4885              8.5                  8.4485               93.4893              0.0415               62.9774              113.4902             137.8253             -0.0057              0.2317               0.1201               3.2948               1.7277               2.7234               118.2522             5488.3325            19.8454              0.1597               11.4865              5.8364               1.9681               3.4003               
4809.5428            56.4061              78.095               80.4556              82.9881              84.8625              8.5                  8.4049               95.3092              0.0199               62.7215              110.2185             132.4957             -0.0033              0.2452               0.0826               3.2048               1.7588               2.7281               115.7913             5518.6929            20.2466              0.1513               11.5116              7.2841               1.5804               2.7796               
4809.6952            55.1749              73.4895              74.6678              76.7518              79.0341              8.5                  8.4049               94.5707              0.0086               62.4368              110.5515             129.618              -0.0016              0.258                0.0523               3.1406               1.78                 2.7336               115.5194             5522.5371            19.8856              0.1495               11.1715              7.1876               1.5543               2.7667               
4809.8476            54.2788              76.2607              77.6312              77.6389              80.9075              8.5                  8.4376               98.5139              0.0248               62.6828              110.476              135.1276             -0.0038              0.2494               0.0745               3.1877               1.8196               2.7238               118.9061             5488.2314            20.9175              0.1563               11.4954              7.6383               1.505                2.7385               
4810                 55.852               82.4495              82.1612              80.9707              85.8898              8.5                  8.4158               93.5226              0.0248               62.3835              108.9298             130.1236             -0.0031              0.2467               0.0624               3.2495               1.755                2.7263               115.9563             5509.9233            19.6962              0.1642               11.2228              6.7291               1.6678               2.927                
4810.1524            57.9775              84.0391              85.9019              82.2807              88.0963              8.5                  8.4194               91.1695              0.0248               62.3745              110.5134             127.086              -0.0028              0.2364               0.0618               3.3097               1.702                2.7242               110.8346             5544.4155            19.2524              0.1572               11.3115              7.3964               1.5293               2.603                
