~VERSION INFORMATION
VERS.                 2.0:   CWLS LOG ASCII STANDARD VERSION 2.0
WRAP.                 YES:   MULTIPLE LINES PER DEPTH STEP
~WELL INFORMATION
#MNEM.UNIT       DATA           DESCRIPTION MNEMONIC
#---------    -------------   --------------------------
STRT.      4199.9428    : 
STOP.      5050.03    : 
STEP.      0.1524    : 
NULL.      -999.0 : 
COMP.      SONATRACH EXPLORATION    : COMPANY
WELL.      Test    : WELL
FLD .      BERKINE     : FIELD
LOC .      X = 666666.0 Y = 7777777.0   : LOCATION
PROV.      ENF-16    : PROVINCE
CNTY.      ENF-16    : 
STAT.      ENF-16    : 
CTRY.      Algeria    : 
SRVC.      SCH    : SERVICE COMPANY
UWI .      W-1     : UNIQUE WELL ID
~CURVE INFORMATION
#MNEM          UNIT     API CODE   Curve Type Comments
#---------- ---------- ----------  ---------- --------
 DEPTH               .M                    : The Depth
 AT10                .ohm.m                :ShalRes    (AIT-M)                 (3in)                   Array Induction Two Foot Resistivity A10
 AT20                .ohm.m                :ShalRes    (AIT-M)                 (3in)                   Array Induction Two Foot Resistivity A20
 AT30                .ohm.m                :MedRes     (AIT-M)                 (3in)                   Array Induction Two Foot Resistivity A30
 AT60                .ohm.m                :MedRes     (AIT-M)                 (3in)                   Array Induction Two Foot Resistivity A60
 AT90                .ohm.m                :XDeepRes   (AIT-M)                 (3in)                   Array Induction Two Foot Resistivity A90
 BS                  .in                   :(Borehole)              (6in)                   Bit Size
 CALI                .in                   :Caliper    (HDRS-H)                (1in)                   Caliper
 CGR                 .gAPI                 :GammaRay   (HNGS-BA)               (6in)                   Gamma Ray Contribution from Thorium and Potassium
 DSOZ                .in                   :(HDRS-H)                (2in)                   Standard Resolution Density Standoff
 DTCO                .us/ft                :Sonic      (DSST-B)                (6in)                   Delta-T Compressional
 DTSM                .us/ft                :ShearSonic (DSST-B)                (6in)                   Delta-T Shear
 GR_CAL              .gAPI                 :GammaRay   (EDTC-B)                (6in)                   Calibrated Gamma Ray
 HDRA                .g/cm3                :Drho       (HDRS-H)                (2in)                   Density Standoff Correction
 HDRB                .g/cm3                :(HDRS-H)                (2in)                   Difference Between Bulk Density (RHOZ) and Apparent Density from Back Scatter Monosensor Inversion (RHBA)
 HPRA                .                     :(HDRS-H)                (2in)                   Photoelectric Factor Correction
 PEFZ                .B/E                  :PEF        (HDRS-H)                (2in)                   Standard Resolution Formation Photoelectric Factor
 POTA                .%                    :Spectral   (HNGS-BA)               (6in)                   Potassium Concentration
 RHOZ                .g/cm3                :Density    (HDRS-H)                (2in)                   Standard Resolution Formation Density
 SGR                 .gAPI                 :GammaRay   (HNGS-BA)               (6in)                   Spectroscopy Gamma Ray
 TENS                .lbf                  :Tension    (WLWorkflow)            (6in)                   Cable Tension
 THOR                .ppm                  :Spectral   (HNGS-BA)               (6in)                   Thorium Concentration
 TNPH                .m3/m3                :Neutron    (HGNS-H)                (6in)                   Thermal Neutron Porosity (Ratio Method) in Selected Lithology
 TPRA                .                     :Temp       (HNGS-BA)               (6in)                   Thorium/Potassium Ratio
 TURA                .                     :Temp       (HNGS-BA)               (6in)                   Thorium/Uranium Ratio
 UPRA                .PPM                  :Spectral   (HNGS-BA)               (6in)                   Uranium/Potassium Ratio
 URAN                .ppm                  :Spectral   (HNGS-BA)               (6in)                   Uranium Concentration
~A Log data section
# ...
4949.7508            21.8762              28.3657              29.9602              31.4805              28.8553              8.5                  8.492                119.3047             0.0296               73.4677              152.1476             143.9574             -0.0029              0.1705               0.0829               4.0237               2.4701               2.738                143.942              5640.2856            23.743               0.341                9.6121               5.7434               1.6736               4.134                
4949.9032            23.0122              30.7204              33.4478              36.1151              32.2129              8.5                  8.4811               117.0347             0.038                74.0778              153.6919             147.4061             -0.0064              0.1622               0.1645               4.1266               2.4194               2.7234               143.0699             5619.5381            23.3129              0.3389               9.6358               5.424                1.7765               4.2982               
4950.0556            24.9724              34.0688              37.8082              41.2755              35.6405              8.5                  8.4703               118.7756             0.0433               74.4873              156.2782             143.9252             -0.0042              0.1815               0.1466               4.1089               2.4514               2.7387               144.7959             5662.9238            23.683               0.3314               9.661                5.4752               1.7645               4.3255               
4950.208             26.4845              38.1562              43.9674              47.8178              42.1265              8.5                  8.4811               117.7195             0.0301               74.9444              156.4392             147.1357             -0.0028              0.1913               0.1191               4.057                2.3554               2.7492               145.3078             5637.3564            23.9067              0.3191               10.1496              5.2616               1.929                4.5437               
4950.3604            28.5893              41.2227              46.4157              52.8287              51.47                8.5                  8.4485               117.1759             0.0314               75.195               155.9879             146.0839             -0.0033              0.1899               0.1223               4.0174               2.3235               2.751                142.6848             5631.6147            23.9195              0.3086               10.2945              5.5178               1.8657               4.3349               
4950.5128            25.6511              39.6704              45.962               53.3418              54.5004              8.5                  8.492                111.4066             0.049                75.4744              154.0341             146.5088             -0.0075              0.1725               0.1633               4.0128               2.2172               2.7355               139.3174             5627.3071            22.6946              0.3265               10.2358              5.0161               2.0406               4.5244               
4950.6652            23.2435              33.3258              39.2636              46.1188              50.8795              8.5                  8.4703               110.8384             0.0662               75.4178              153.5489             143.5254             -0.0095              0.1629               0.201                4.0248               2.1467               2.7249               138.1977             5616.7861            22.9254              0.3285               10.6795              5.0398               2.119                4.5489               
4950.8176            20.6539              28.0846              32.6716              39.5849              47.7624              8.5                  8.4848               108.7766             0.0597               75.2911              153.3996             147.1904             -0.0085              0.1617               0.1812               4.0167               2.1574               2.7217               139.9762             5620.1538            22.2025              0.3327               10.2913              4.3483               2.3668               5.106                
4950.97              20.1364              26.8028              31.1085              37.6286              46.4799              8.5                  8.492                108.3529             0.0422               75.1543              152.9465             150.7759             -0.0069              0.1601               0.1575               4.03                 2.0735               2.719                141.3469             5647.23              22.5579              0.3119               10.8792              4.0868               2.662                5.5196               
4951.1224            20.9736              28.813               32.6583              40.0295              50.7633              8.5                  8.5029               109.6055             0.0302               74.8242              151.1344             150.1429             -0.0055              0.162                0.1264               4.0394               2.2033               2.7223               144.4701             5658.6436            22.1994              0.3136               10.0756              3.8502               2.6169               5.7658               
4951.2748            21.8257              30.545               34.3171              41.0907              52.5332              8.5                  8.4848               105.5291             0.0235               74.1824              150.7599             149.1187             -0.0049              0.1631               0.1212               4.0543               2.1066               2.7271               140.8575             5648.6147            21.4597              0.3108               10.1868              3.7428               2.7217               5.7337               
4951.4272            23.2318              32.5706              35.216               41.1927              54.0006              8.5                  8.4703               100.2615             0.0181               74.1566              150.1607             148.8213             -0.004               0.1641               0.1105               4.0432               1.9005               2.7341               138.8706             5666.0776            20.9799              0.329                11.0393              3.4288               3.2195               6.1186               
4951.5796            24.9017              36.1386              37.6599              41.5687              54.4324              8.5                  8.4811               101.391              0.0297               74.1617              151.9975             152.2997             -0.0048              0.1542               0.1282               4.042                1.8473               2.7321               137.9338             5650.2153            21.6527              0.3405               11.7211              3.738                3.1357               5.7926               
4951.732             29.026               44.5838              44.7319              47.1209              56.5977              8.5                  8.4703               105.3618             0.0302               74.3648              152.2867             149.4278             -0.0029              0.1563               0.0878               3.9747               1.8479               2.7421               141.3172             5684.3076            22.9207              0.3408               12.4036              4.0304               3.0775               5.6869               
4951.8844            34.022               56.2971              53.8684              52.7857              59.5714              8.5                  8.4703               110.6667             0.0213               74.6655              153.101              150.8767             -0.0014              0.1603               0.0622               3.9309               1.9979               2.7523               144.4315             5666.9995            23.7415              0.3276               11.8834              4.3484               2.7329               5.4599               
