~VERSION INFORMATION
VERS.                 2.0:   CWLS LOG ASCII STANDARD VERSION 2.0
WRAP.                 YES:   MULTIPLE LINES PER DEPTH STEP
~WELL INFORMATION
#MNEM.UNIT       DATA           DESCRIPTION MNEMONIC
#---------    -------------   --------------------------
STRT.      4199.9428    : 
STOP.      5050.03    : 
STEP.      0.1524    : 
NULL.      -999.0 : 
COMP.      SONATRACH EXPLORATION    : COMPANY
WELL.      Test    : WELL
FLD .      BERKINE     : FIELD
LOC .      X = 666666.0 Y = 7777777.0   : LOCATION
PROV.      ENF-16    : PROVINCE
CNTY.      ENF-16    : 
STAT.      ENF-16    : 
CTRY.      Algeria    : 
SRVC.      SCH    : SERVICE COMPANY
UWI .      W-1     : UNIQUE WELL ID
~CURVE INFORMATION
#MNEM          UNIT     API CODE   Curve Type Comments
#---------- ---------- ----------  ---------- --------
 DEPTH               .M                    : The Depth
 AT10                .ohm.m                :ShalRes    (AIT-M)                 (3in)                   Array Induction Two Foot Resistivity A10
 AT20                .ohm.m                :ShalRes    (AIT-M)                 (3in)                   Array Induction Two Foot Resistivity A20
 AT30                .ohm.m                :MedRes     (AIT-M)                 (3in)                   Array Induction Two Foot Resistivity A30
 AT60                .ohm.m                :MedRes     (AIT-M)                 (3in)                   Array Induction Two Foot Resistivity A60
 AT90                .ohm.m                :XDeepRes   (AIT-M)                 (3in)                   Array Induction Two Foot Resistivity A90
 BS                  .in                   :(Borehole)              (6in)                   Bit Size
 CALI                .in                   :Caliper    (HDRS-H)                (1in)                   Caliper
 CGR                 .gAPI                 :GammaRay   (HNGS-BA)               (6in)                   Gamma Ray Contribution from Thorium and Potassium
 DSOZ                .in                   :(HDRS-H)                (2in)                   Standard Resolution Density Standoff
 DTCO                .us/ft                :Sonic      (DSST-B)                (6in)                   Delta-T Compressional
 DTSM                .us/ft                :ShearSonic (DSST-B)                (6in)                   Delta-T Shear
 GR_CAL              .gAPI                 :GammaRay   (EDTC-B)                (6in)                   Calibrated Gamma Ray
 HDRA                .g/cm3                :Drho       (HDRS-H)                (2in)                   Density Standoff Correction
 HDRB                .g/cm3                :(HDRS-H)                (2in)                   Difference Between Bulk Density (RHOZ) and Apparent Density from Back Scatter Monosensor Inversion (RHBA)
 HPRA                .                     :(HDRS-H)                (2in)                   Photoelectric Factor Correction
 PEFZ                .B/E                  :PEF        (HDRS-H)                (2in)                   Standard Resolution Formation Photoelectric Factor
 POTA                .%                    :Spectral   (HNGS-BA)               (6in)                   Potassium Concentration
 RHOZ                .g/cm3                :Density    (HDRS-H)                (2in)                   Standard Resolution Formation Density
 SGR                 .gAPI                 :GammaRay   (HNGS-BA)               (6in)                   Spectroscopy Gamma Ray
 TENS                .lbf                  :Tension    (WLWorkflow)            (6in)                   Cable Tension
 THOR                .ppm                  :Spectral   (HNGS-BA)               (6in)                   Thorium Concentration
 TNPH                .m3/m3                :Neutron    (HGNS-H)                (6in)                   Thermal Neutron Porosity (Ratio Method) in Selected Lithology
 TPRA                .                     :Temp       (HNGS-BA)               (6in)                   Thorium/Potassium Ratio
 TURA                .                     :Temp       (HNGS-BA)               (6in)                   Thorium/Uranium Ratio
 UPRA                .PPM                  :Spectral   (HNGS-BA)               (6in)                   Uranium/Potassium Ratio
 URAN                .ppm                  :Spectral   (HNGS-BA)               (6in)                   Uranium Concentration
~A Log data section
# ...
4853.7388            41.9426              51.491               50.6514              46.8327              44.8065              8.5                  8.4376               98.5721              0.0866               70.8821              139.2695             147.4385             -0.0098              0.2122               0.2312               3.7772               1.9367               2.7054               134.2701             5541.999             20.2511              0.2574               10.4568              4.1481               2.5208               4.8819               
4853.8912            40.8437              49.5924              48.9826              45.2683              42.9241              8.5                  8.4485               99.5604              0.0635               70.7988              139.0635             148.0539             -0.0084              0.2257               0.1978               3.7644               1.9242               2.7163               135.4709             5532.0762            20.6407              0.2581               10.727               4.2264               2.5381               4.8838               
4854.0436            40.3151              48.4807              48.2141              44.6176              41.8695              8.5                  8.4267               99.656               0.0666               71.0515              139.4825             151.3027             -0.0081              0.2295               0.2048               3.7609               1.897                2.7176               137.0111             5511.1528            20.8307              0.2526               10.9811              4.1222               2.6639               5.0533               
4854.196             40.0276              48.718               48.0255              44.1047              40.7692              8.5                  8.4376               99.6899              0.0681               71.236               141.9091             146.6837             -0.007               0.2312               0.2123               3.7511               1.851                2.719                137.8225             5531.5386            21.1107              0.2734               11.4051              3.9554               2.8834               5.3372               
4854.3484            40.007               50.2067              49.7339              45.8258              41.7076              8.5                  8.4376               99.9307              0.0802               71.5542              146.6042             150.8171             -0.0055              0.2229               0.2252               3.7764               1.9588               2.7143               139.3281             5528.3081            20.5567              0.2887               10.4945              3.7299               2.8137               5.5114               
4854.5008            38.8646              47.2315              47.5946              44.4234              40.2565              8.5                  8.4267               106.4015             0.0486               72.1179              143.6415             153.1095             -0.0025              0.2324               0.1552               3.7475               2.0097               2.7301               143.522              5536.1675            22.3326              0.2986               11.1125              4.2519               2.6135               5.2524               
4854.6532            37.0813              43.5892              44.8321              42.49                38.2322              8.5                  8.4412               106.1653             0.0361               72.454               147.9359             157.071              -0.0028              0.2323               0.1354               3.7592               1.9886               2.7352               142.399              5524.4619            22.3803              0.3072               11.2543              4.3965               2.5599               5.0905               
4854.8056            35.6582              41.147               42.7731              40.9594              36.4768              8.5                  8.4049               108.6657             0.038                72.9019              151.2707             156.1423             0.0108               0.2394               0.1155               3.7338               1.979                2.7437               142.515              5516.9238            23.2379              0.3142               11.7423              4.6981               2.4994               4.9462               
4854.958             33.774               39.326               41.1965              40.2771              35.8088              8.5                  8.4267               110.7728             0.0368               72.8044              154.6055             153.7569             0.018                0.233                0.1631               3.7477               2.1718               2.736                142.7978             5526.0757            22.784               0.3036               10.4906              5.0469               2.0786               4.5145               
4855.1104            32.8387              38.5139              40.8125              40.7687              35.7845              8.5                  8.4267               110.0611             0.0497               73.1706              155.885              150.1272             0.0197               0.229                0.1811               3.7317               2.2281               2.7322               144.9589             5536.3071            22.2263              0.3029               9.9752               4.4087               2.2626               5.0415               
4855.2628            32.0649              38.2767              41.0872              40.034               36.1899              8.5                  8.4267               109.2988             0.0597               73.2433              145.7374             144.4797             0.0033               0.2169               0.2066               3.7543               2.2757               2.7239               145.908              5523.9224            21.7038              0.2905               9.5374               4.1445               2.3012               5.2368               
4855.4152            31.9648              39.1419              40.8333              40.0295              37.1587              8.5                  8.434                105.7085             0.0586               73.3301              146.3967             141.2926             -0.0061              0.211                0.2                  3.7708               2.2889               2.7239               143.0042             5552.3335            20.4756              0.2895               8.9455               3.9883               2.2429               5.1339               
4855.5676            30.4165              38.7235              41.3252              40.6757              38.6294              8.5                  8.4376               106.5402             0.0366               73.4788              151.8022             141.8411             -0.0074              0.2169               0.1671               3.7687               2.3595               2.7348               144.4794             5536.9297            20.3288              0.2935               8.6156               3.8634               2.2301               5.2619               
4855.72              30.0003              37.3935              40.1585              39.4835              38.5692              8.5                  8.4267               106.5881             0.0201               73.3543              150.9372             142.6534             -0.0055              0.2259               0.1391               3.7654               2.3534               2.747                145.8673             5523.5825            20.3802              0.3142               8.6601               3.7693               2.2975               5.4069               
4855.8724            30.5081              37.6715              40.0284              39.0757              39.0014              8.5                  8.4485               107.702              0.0212               73.5734              156.8362             140.7691             -0.0055              0.2251               0.1379               3.7829               2.4446               2.7489               145.1377             5520.4624            20.2028              0.3272               8.2642               4.056                2.0375               4.981                
