~VERSION INFORMATION
VERS.                 2.0:   CWLS LOG ASCII STANDARD VERSION 2.0
WRAP.                 YES:   MULTIPLE LINES PER DEPTH STEP
~WELL INFORMATION
#MNEM.UNIT       DATA           DESCRIPTION MNEMONIC
#---------    -------------   --------------------------
STRT.      4199.9428    : 
STOP.      5050.03    : 
STEP.      0.1524    : 
NULL.      -999.0 : 
COMP.      SONATRACH EXPLORATION    : COMPANY
WELL.      Test    : WELL
FLD .      BERKINE     : FIELD
LOC .      X = 666666.0 Y = 7777777.0   : LOCATION
PROV.      ENF-16    : PROVINCE
CNTY.      ENF-16    : 
STAT.      ENF-16    : 
CTRY.      Algeria    : 
SRVC.      SCH    : SERVICE COMPANY
UWI .      W-1     : UNIQUE WELL ID
~CURVE INFORMATION
#MNEM          UNIT     API CODE   Curve Type Comments
#---------- ---------- ----------  ---------- --------
 DEPTH               .M                    : The Depth
 AT10                .ohm.m                :ShalRes    (AIT-M)                 (3in)                   Array Induction Two Foot Resistivity A10
 AT20                .ohm.m                :ShalRes    (AIT-M)                 (3in)                   Array Induction Two Foot Resistivity A20
 AT30                .ohm.m                :MedRes     (AIT-M)                 (3in)                   Array Induction Two Foot Resistivity A30
 AT60                .ohm.m                :MedRes     (AIT-M)                 (3in)                   Array Induction Two Foot Resistivity A60
 AT90                .ohm.m                :XDeepRes   (AIT-M)                 (3in)                   Array Induction Two Foot Resistivity A90
 BS                  .in                   :(Borehole)              (6in)                   Bit Size
 CALI                .in                   :Caliper    (HDRS-H)                (1in)                   Caliper
 CGR                 .gAPI                 :GammaRay   (HNGS-BA)               (6in)                   Gamma Ray Contribution from Thorium and Potassium
 DSOZ                .in                   :(HDRS-H)                (2in)                   Standard Resolution Density Standoff
 DTCO                .us/ft                :Sonic      (DSST-B)                (6in)                   Delta-T Compressional
 DTSM                .us/ft                :ShearSonic (DSST-B)                (6in)                   Delta-T Shear
 GR_CAL              .gAPI                 :GammaRay   (EDTC-B)                (6in)                   Calibrated Gamma Ray
 HDRA                .g/cm3                :Drho       (HDRS-H)                (2in)                   Density Standoff Correction
 HDRB                .g/cm3                :(HDRS-H)                (2in)                   Difference Between Bulk Density (RHOZ) and Apparent Density from Back Scatter Monosensor Inversion (RHBA)
 HPRA                .                     :(HDRS-H)                (2in)                   Photoelectric Factor Correction
 PEFZ                .B/E                  :PEF        (HDRS-H)                (2in)                   Standard Resolution Formation Photoelectric Factor
 POTA                .%                    :Spectral   (HNGS-BA)               (6in)                   Potassium Concentration
 RHOZ                .g/cm3                :Density    (HDRS-H)                (2in)                   Standard Resolution Formation Density
 SGR                 .gAPI                 :GammaRay   (HNGS-BA)               (6in)                   Spectroscopy Gamma Ray
 TENS                .lbf                  :Tension    (WLWorkflow)            (6in)                   Cable Tension
 THOR                .ppm                  :Spectral   (HNGS-BA)               (6in)                   Thorium Concentration
 TNPH                .m3/m3                :Neutron    (HGNS-H)                (6in)                   Thermal Neutron Porosity (Ratio Method) in Selected Lithology
 TPRA                .                     :Temp       (HNGS-BA)               (6in)                   Thorium/Potassium Ratio
 TURA                .                     :Temp       (HNGS-BA)               (6in)                   Thorium/Uranium Ratio
 UPRA                .PPM                  :Spectral   (HNGS-BA)               (6in)                   Uranium/Potassium Ratio
 URAN                .ppm                  :Spectral   (HNGS-BA)               (6in)                   Uranium Concentration
~A Log data section
# ...
4519.9828            22.5907              23.0767              23.6458              22.7131              21.7705              8.5                  8.4267               96.9681              0.056                67.9748              132.7762             124.3004             0.001                0.1647               0.1506               3.5409               2.2209               2.7215               115.1073             5135.9336            18.0564              0.2242               8.1302               6.9781               1.1651               2.5876               
4520.1352            22.2718              23.82                23.7012              22.6433              21.4288              8.5                  8.4376               100.3362             0.0804               68.4599              133.1783             119.6915             0.0022               0.1633               0.1672               3.62                 2.346                2.7199               116.6747             5139.3325            18.4028              0.2275               7.8443               7.72                 1.0161               2.3838               
4520.2876            22.7574              24.0694              24.2577              22.832               21.9424              8.5                  8.434                101.4132             0.0766               67.6705              133.5804             118.7946             0.003                0.1755               0.1559               3.66                 2.3167               2.73                 118.1585             5142.0664            18.9193              0.2421               8.1664               7.5861               1.0765               2.494                
4520.44              23.4317              25.0804              25.0548              23.422               22.3486              8.5                  8.4703               103.7108             0.0734               67.1991              133.9825             122.1216             -0.0026              0.1914               0.1481               3.6665               2.375                2.7407               120.8723             5147.2661            19.3139              0.2524               8.1322               7.5598               1.0757               2.5548               
4520.5924            25.4388              24.5034              25.0365              23.7579              22.4821              8.5                  8.4267               110.4287             0                    67.2158              134.3846             133.517              -0.0026              0.2098               0.0963               3.5849               2.5366               2.7519               128.4428             5130.7134            20.5198              0.2567               8.0895               7.6909               1.0518               2.6681               
4520.7448            27.6721              28.9605              29.0466              26.0705              25.297               8.5                  8.4267               116.0839             0                    64.7559              134.7867             140.4459             -0.001               0.2154               0.0539               3.4706               2.6065               2.7517               137.2026             5130.6011            21.9218              0.2461               8.4104               7.3248               1.1482               2.9928               
4520.8972            29.4453              30.6597              32.2821              31.3944              28.8964              8.5                  8.4049               113.4736             0                    63.9435              135.1888             147.2152             -0.0004              0.2118               0.0321               3.3598               2.5689               2.7467               134.8462             5136.8013            21.3061              0.2206               8.294                6.8861               1.2045               3.0941               
4521.0496            24.3167              26.2367              27.095               26.5541              24.5562              8.5                  8.4049               98.4917              0.0086               63.6398              135.5909             140.6819             -0.0026              0.1934               0.074                3.3364               2.2761               2.7298               120.8491             5134.6655            18.2213              0.175                8.0055               6.1024               1.3119               2.9859               
4521.202             22.6048              23.4318              24.4181              23.8913              22.2505              8.5                  8.4485               85.1271              0.0285               63.5651              135.993              129.1997             -0.0055              0.1737               0.1225               3.3724               1.9677               2.7102               106.9548             5143.334             15.746               0.1457               8.0022               5.6564               1.4147               2.7838               
4521.3544            21.4692              21.7191              23.0066              23.3236              21.2803              8.5                  8.4158               77.3749              0.0285               64.259               136.395              114.4546             -0.0061              0.166                0.1421               3.4221               1.7751               2.6982               100.0725             5161.5322            14.3904              0.139                8.1066               4.8491               1.6718               2.9677               
4521.5068            21.8214              22.3776              23.3895              23.4463              21.9229              8.5                  8.4376               80.3968              0.0437               64.4529              136.7971             105.2986             -0.0069              0.1601               0.1416               3.4315               1.8254               2.6863               101.7178             5173.5708            15.064               0.1577               8.2525               5.3484               1.543                2.8166               
4521.6592            22.0892              22.9375              24.0899              23.1284              21.8322              8.5                  8.463                80.7764              0.0316               65.1326              137.1992             104.3665             -0.0059              0.1626               0.1443               3.4142               1.9058               2.6868               102.9943             5188.2666            14.7148              0.1728               7.7211               5.0516               1.5285               2.9129               
4521.8116            22.2627              23.0129              23.9982              23.2085              23.674               8.5                  8.4557               79.1261              0.05                 66.8249              137.6013             103.7953             -0.0074              0.1605               0.154                3.4041               1.8418               2.6902               101.6719             5165.8667            14.561               0.1683               7.9061               4.9269               1.6047               2.9554               
4521.964             18.6252              19.5077              19.9188              19.6378              19.5664              8.5                  8.4557               75.7896              0.0379               67.785               138.0034             100.5938             -0.0065              0.1721               0.15                 3.4275               1.7739               2.7119               99.6871              5158.6011            13.8895              0.1683               7.83                 4.335                1.8062               3.204                
4522.1164            16.3381              16.6933              16.8836              16.8814              17.0846              8.5                  8.4376               81.337               0.0525               69.3811              138.4055             105.4086             -0.0071              0.177                0.1503               3.4873               1.8955               2.7254               104.5565             5178.1997            14.9546              0.1999               7.8897               4.7354               1.6661               3.1581               
