~VERSION INFORMATION
VERS.                 2.0:   CWLS LOG ASCII STANDARD VERSION 2.0
WRAP.                 YES:   MULTIPLE LINES PER DEPTH STEP
~WELL INFORMATION
#MNEM.UNIT       DATA           DESCRIPTION MNEMONIC
#---------    -------------   --------------------------
STRT.      4199.9428    : 
STOP.      5050.03    : 
STEP.      0.1524    : 
NULL.      -999.0 : 
COMP.      SONATRACH EXPLORATION    : COMPANY
WELL.      Test    : WELL
FLD .      BERKINE     : FIELD
LOC .      X = 666666.0 Y = 7777777.0   : LOCATION
PROV.      ENF-16    : PROVINCE
CNTY.      ENF-16    : 
STAT.      ENF-16    : 
CTRY.      Algeria    : 
SRVC.      SCH    : SERVICE COMPANY
UWI .      W-1     : UNIQUE WELL ID
~CURVE INFORMATION
#MNEM          UNIT     API CODE   Curve Type Comments
#---------- ---------- ----------  ---------- --------
 DEPTH               .M                    : The Depth
 AT10                .ohm.m                :ShalRes    (AIT-M)                 (3in)                   Array Induction Two Foot Resistivity A10
 AT20                .ohm.m                :ShalRes    (AIT-M)                 (3in)                   Array Induction Two Foot Resistivity A20
 AT30                .ohm.m                :MedRes     (AIT-M)                 (3in)                   Array Induction Two Foot Resistivity A30
 AT60                .ohm.m                :MedRes     (AIT-M)                 (3in)                   Array Induction Two Foot Resistivity A60
 AT90                .ohm.m                :XDeepRes   (AIT-M)                 (3in)                   Array Induction Two Foot Resistivity A90
 BS                  .in                   :(Borehole)              (6in)                   Bit Size
 CALI                .in                   :Caliper    (HDRS-H)                (1in)                   Caliper
 CGR                 .gAPI                 :GammaRay   (HNGS-BA)               (6in)                   Gamma Ray Contribution from Thorium and Potassium
 DSOZ                .in                   :(HDRS-H)                (2in)                   Standard Resolution Density Standoff
 DTCO                .us/ft                :Sonic      (DSST-B)                (6in)                   Delta-T Compressional
 DTSM                .us/ft                :ShearSonic (DSST-B)                (6in)                   Delta-T Shear
 GR_CAL              .gAPI                 :GammaRay   (EDTC-B)                (6in)                   Calibrated Gamma Ray
 HDRA                .g/cm3                :Drho       (HDRS-H)                (2in)                   Density Standoff Correction
 HDRB                .g/cm3                :(HDRS-H)                (2in)                   Difference Between Bulk Density (RHOZ) and Apparent Density from Back Scatter Monosensor Inversion (RHBA)
 HPRA                .                     :(HDRS-H)                (2in)                   Photoelectric Factor Correction
 PEFZ                .B/E                  :PEF        (HDRS-H)                (2in)                   Standard Resolution Formation Photoelectric Factor
 POTA                .%                    :Spectral   (HNGS-BA)               (6in)                   Potassium Concentration
 RHOZ                .g/cm3                :Density    (HDRS-H)                (2in)                   Standard Resolution Formation Density
 SGR                 .gAPI                 :GammaRay   (HNGS-BA)               (6in)                   Spectroscopy Gamma Ray
 TENS                .lbf                  :Tension    (WLWorkflow)            (6in)                   Cable Tension
 THOR                .ppm                  :Spectral   (HNGS-BA)               (6in)                   Thorium Concentration
 TNPH                .m3/m3                :Neutron    (HGNS-H)                (6in)                   Thermal Neutron Porosity (Ratio Method) in Selected Lithology
 TPRA                .                     :Temp       (HNGS-BA)               (6in)                   Thorium/Potassium Ratio
 TURA                .                     :Temp       (HNGS-BA)               (6in)                   Thorium/Uranium Ratio
 UPRA                .PPM                  :Spectral   (HNGS-BA)               (6in)                   Uranium/Potassium Ratio
 URAN                .ppm                  :Spectral   (HNGS-BA)               (6in)                   Uranium Concentration
~A Log data section
# ...
4471.9768            20.0992              18.1306              18.1425              14.4129              15.095               8.5                  8.4267               126.4935             0.0596               69.838               136.9205             141.6528             0.0014               0.1898               0.1424               3.5217               2.8388               2.7114               141.9169             5114.5337            23.9077              0.305                8.4218               9.9431               0.847                2.4044               
4472.1292            19.2558              17.5468              17.6283              13.9552              14.6552              8.5                  8.4267               126.4024             0.0674               70.2784              137.2877             150.0097             0.0011               0.1883               0.1617               3.5955               2.78                 2.7122               141.1381             5135.4004            24.2223              0.3122               8.713                10.2597              0.8493               2.3609               
4472.2816            18.2371              16.7315              16.6376              13.5085              14.1016              8.5                  8.4158               125.6315             0.0553               70.3856              136.0064             153.0006             0.0035               0.1961               0.1346               3.6216               2.6859               2.7217               143.1186             5162.9287            24.5265              0.3194               9.1317               8.7615               1.0423               2.7994               
4472.434             17.4937              16.0059              15.8261              12.9731              13.5376              8.5                  8.4376               121.059              0.0455               69.912               135.8026             151.7303             -0.0047              0.194                0.1341               3.6696               2.6471               2.722                143.6441             5131.001             23.2881              0.328                8.7975               6.7131               1.3105               3.469                
4472.5864            17.3814              15.8371              15.571               12.9486              13.4736              8.5                  8.4376               117.2629             0                    69.6484              136.2391             147.6927             -0.004               0.1921               0.1311               3.7183               2.4927               2.7237               142.3394             5151.6001            22.9762              0.3365               9.2175               5.9552               1.5478               3.8582               
4472.7388            17.4522              15.9014              15.6347              13.0202              13.5067              8.5                  8.434                115.6891             0                    69.9129              136.2342             150.0664             -0.0039              0.1911               0.1339               3.7727               2.4875               2.7266               140.1264             5120.9995            22.5022              0.3199               9.046                6.2322               1.4515               3.6106               
4472.8912            17.9815              16.5798              16.358               13.5651              14.0719              8.5                  8.4412               108.8989             0                    69.0303              134.7479             147.2627             -0.0021              0.2037               0.0853               3.7553               2.2812               2.7408               133.4125             5171.0664            21.5349              0.3086               9.4403               5.8759               1.6066               3.6649               
4473.0436            18.8717              17.5054              17.2692              14.2842              14.8006              8.5                  8.4158               110.9888             0.0091               69.3982              133.8405             148.0315             -0.0026              0.2083               0.074                3.744                2.3155               2.743                132.9529             5143.9346            22.0036              0.3113               9.5027               6.7333               1.4113               3.2679               
4473.196             19.4588              17.879               17.593               14.6272              15.137               8.5                  8.4376               114.6221             0.0387               68.8342              133.1076             146.0985             -0.0006              0.2019               0.1046               3.7317               2.3071               2.732                136.563              5136.001             23.2169              0.3171               10.0634              7.2108               1.3956               3.2197               
4473.3484            19.6729              18.224               18.0391              15.0257              15.5553              8.5                  8.4267               120.8189             0.067                68.4315              132.667              143.3951             -0.0014              0.1892               0.1655               3.7093               2.4153               2.7152               141.3556             5121.0669            24.5688              0.3104               10.1722              8.0892               1.2575               3.0373               
4473.5008            19.5648              18.3858              18.3415              15.4111              15.9988              8.5                  8.4194               119.0753             0.065                67.785               132.0623             141.1183             -0.0013              0.189                0.1682               3.617                2.3472               2.7144               143.1418             5135.2861            24.4088              0.2966               10.3992              7.0967               1.4654               3.4395               
4473.6532            19.8653              18.802               18.9313              15.9535              16.6367              8.5                  8.4267               119.3646             0.0355               67.3081              131.531              136.5339             -0.0035              0.1938               0.1503               3.5324               2.3394               2.7229               142.0859             5118.0005            24.5473              0.286                10.493               7.4632               1.406                3.2891               
4473.8056            21.8953              20.4625              20.506               17.1059              18.0028              8.5                  8.4122               117.0242             0.0277               67.3462              133.289              134.5702             -0.0056              0.19                 0.1506               3.507                2.3686               2.7252               138.6488             5158.666             23.6264              0.2487               9.9747               7.5632               1.3188               3.1239               
4473.958             24.7611              22.7738              22.5816              18.8147              19.5948              8.5                  8.4158               113.1287             0.0673               67.3477              133.507              129.16               -0.006               0.1876               0.1625               3.5193               2.3134               2.727                132.2154             5131.9341            22.7016              0.2314               9.8131               8.1537               1.2035               2.7842               
4474.1104            24.1827              22.2233              21.9799              18.5224              19.3222              8.5                  8.4122               108.984              0.0673               68.6604              132.8587             123.5134             -0.0065              0.1926               0.1681               3.5477               2.2254               2.7307               125.3665             5151.5327            21.8889              0.2435               9.8361               8.9171               1.1031               2.4547               
