~VERSION INFORMATION
VERS.                 2.0:   CWLS LOG ASCII STANDARD VERSION 2.0
WRAP.                 YES:   MULTIPLE LINES PER DEPTH STEP
~WELL INFORMATION
#MNEM.UNIT       DATA           DESCRIPTION MNEMONIC
#---------    -------------   --------------------------
STRT.      4199.9428    : 
STOP.      5050.03    : 
STEP.      0.1524    : 
NULL.      -999.0 : 
COMP.      SONATRACH EXPLORATION    : COMPANY
WELL.      Test    : WELL
FLD .      BERKINE     : FIELD
LOC .      X = 666666.0 Y = 7777777.0   : LOCATION
PROV.      ENF-16    : PROVINCE
CNTY.      ENF-16    : 
STAT.      ENF-16    : 
CTRY.      Algeria    : 
SRVC.      SCH    : SERVICE COMPANY
UWI .      W-1     : UNIQUE WELL ID
~CURVE INFORMATION
#MNEM          UNIT     API CODE   Curve Type Comments
#---------- ---------- ----------  ---------- --------
 DEPTH               .M                    : The Depth
 AT10                .ohm.m                :ShalRes    (AIT-M)                 (3in)                   Array Induction Two Foot Resistivity A10
 AT20                .ohm.m                :ShalRes    (AIT-M)                 (3in)                   Array Induction Two Foot Resistivity A20
 AT30                .ohm.m                :MedRes     (AIT-M)                 (3in)                   Array Induction Two Foot Resistivity A30
 AT60                .ohm.m                :MedRes     (AIT-M)                 (3in)                   Array Induction Two Foot Resistivity A60
 AT90                .ohm.m                :XDeepRes   (AIT-M)                 (3in)                   Array Induction Two Foot Resistivity A90
 BS                  .in                   :(Borehole)              (6in)                   Bit Size
 CALI                .in                   :Caliper    (HDRS-H)                (1in)                   Caliper
 CGR                 .gAPI                 :GammaRay   (HNGS-BA)               (6in)                   Gamma Ray Contribution from Thorium and Potassium
 DSOZ                .in                   :(HDRS-H)                (2in)                   Standard Resolution Density Standoff
 DTCO                .us/ft                :Sonic      (DSST-B)                (6in)                   Delta-T Compressional
 DTSM                .us/ft                :ShearSonic (DSST-B)                (6in)                   Delta-T Shear
 GR_CAL              .gAPI                 :GammaRay   (EDTC-B)                (6in)                   Calibrated Gamma Ray
 HDRA                .g/cm3                :Drho       (HDRS-H)                (2in)                   Density Standoff Correction
 HDRB                .g/cm3                :(HDRS-H)                (2in)                   Difference Between Bulk Density (RHOZ) and Apparent Density from Back Scatter Monosensor Inversion (RHBA)
 HPRA                .                     :(HDRS-H)                (2in)                   Photoelectric Factor Correction
 PEFZ                .B/E                  :PEF        (HDRS-H)                (2in)                   Standard Resolution Formation Photoelectric Factor
 POTA                .%                    :Spectral   (HNGS-BA)               (6in)                   Potassium Concentration
 RHOZ                .g/cm3                :Density    (HDRS-H)                (2in)                   Standard Resolution Formation Density
 SGR                 .gAPI                 :GammaRay   (HNGS-BA)               (6in)                   Spectroscopy Gamma Ray
 TENS                .lbf                  :Tension    (WLWorkflow)            (6in)                   Cable Tension
 THOR                .ppm                  :Spectral   (HNGS-BA)               (6in)                   Thorium Concentration
 TNPH                .m3/m3                :Neutron    (HGNS-H)                (6in)                   Thermal Neutron Porosity (Ratio Method) in Selected Lithology
 TPRA                .                     :Temp       (HNGS-BA)               (6in)                   Thorium/Potassium Ratio
 TURA                .                     :Temp       (HNGS-BA)               (6in)                   Thorium/Uranium Ratio
 UPRA                .PPM                  :Spectral   (HNGS-BA)               (6in)                   Uranium/Potassium Ratio
 URAN                .ppm                  :Spectral   (HNGS-BA)               (6in)                   Uranium Concentration
~A Log data section
# ...
4712.0068            30.5296              35.1895              37.6278              38.6585              37.1771              8.5                  8.4158               90.3345              0.0027               65.5313              128.9619             119.8111             0.001                0.198                0.0157               3.3489               1.5572               2.7002               112.2054             5426.6924            19.8248              0.1981               12.7312              7.1066               1.7915               2.7896               
4712.1592            28.2273              33.9118              37.2833              38.6336              37.5378              8.5                  8.4049               92.3154              0.0027               65.2685              128.5781             126.42               -0.0007              0.1859               0.0719               3.3752               1.5843               2.6871               114.8264             5381.6924            20.3005              0.1838               12.8134              6.8885               1.8601               2.947                
4712.3116            28.8405              34.7534              37.318               39.0527              37.5948              8.5                  8.394                98.3379              0                    64.8491              128.1943             135.2133             -0.0032              0.1785               0.1143               3.396                1.7624               2.6805               123.4602             5404                 21.1871              0.1893               12.0215              6.3451               1.8946               3.3391               
4712.464             27.5096              32.7536              35.8257              37.8795              37.0052              8.5                  8.3614               102.6934             0.0244               64.2107              127.8105             139.5734             -0.0043              0.1793               0.1329               3.3911               1.788                2.6835               129.5476             5395.0708            22.4333              0.1892               12.5469              6.419                1.9547               3.4948               
4712.6164            28.1267              33.3526              36.4675              39.3715              37.5875              8.5                  8.3904               101.1162             0.0393               63.355               128.2392             133.0036             -0.0064              0.1757               0.1375               3.379                1.7705               2.6807               129.4386             5413.667             22.0302              0.1916               12.4432              5.9572               2.0888               3.6981               
4712.7688            30.0768              36.9595              40.4442              42.2933              41.9197              8.5                  8.394                92.1145              0.0708               62.4839              128.6679             128.8941             -0.0052              0.1689               0.1617               3.4106               1.5986               2.6724               118.5528             5390.6147            20.1528              0.1794               12.6068              5.6355               2.237                3.576                
4712.9212            32.4473              41.5368              44.8622              46.2314              46.2861              8.5                  8.4158               90.122               0.0786               63.3888              129.0967             128.0604             -0.0059              0.1704               0.1576               3.4253               1.514                2.6721               114.2294             5414.6919            20.0093              0.164                13.2159              6.181                2.1382               3.2373               
4713.0736            32.4815              44.5132              46.7073              49.348               48.543               8.5                  8.3904               83.4206              0.0534               63.8884              129.5254             126.89               -0.0038              0.1761               0.1477               3.419                1.4332               2.679                109.7907             5390.916             18.3356              0.1483               12.7935              5.132                2.4929               3.5728               
4713.226             31.0334              42.1628              45.1403              47.5622              47.8409              8.5                  8.3832               86.2454              0.0288               63.1895              129.9542             131.9276             -0.0051              0.1755               0.1361               3.3895               1.4685               2.6827               114.5179             5412.6934            19.034               0.141                12.9616              5.093                2.545                3.7373               
4713.3784            28.4587              35.194               38.0748              40.8717              41.342               8.5                  8.3723               87.9438              0                    64.1032              130.3829             128.4322             -0.0028              0.1757               0.1028               3.3461               1.5853               2.6872               116.7607             5384.5386            18.8943              0.1508               11.9182              4.9822               2.3922               3.7924               
4713.5308            26.3887              30.2978              33.8814              37.2394              37.7497              8.5                  8.3614               90.7828              0                    64.2693              130.8117             126.1502             -0.0019              0.1795               0.0681               3.3107               1.65                 2.6929               119.7828             5380.6152            19.4253              0.1706               11.7726              4.8704               2.4172               3.9884               
4713.6832            24.424               29.0923              31.968               36.524               36.5221              8.5                  8.4194               89.6967              0                    64.7734              131.2404             123.4375             -0.0018              0.1858               0.0476               3.2664               1.5589               2.7005               119.5412             5398.4609            19.6111              0.1888               12.5802              4.7701               2.6373               4.1113               
4713.8356            25.1368              30.0141              33.581               39.1321              40.4352              8.5                  8.4049               86.5541              0                    64.5568              131.6691             131.6451             -0.0032              0.1838               0.077                3.2383               1.4967               2.7014               116.0441             5400.001             18.9679              0.1912               12.6728              4.5955               2.7577               4.1275               
4713.988             25.993               31.3534              35.4583              40.9276              43.8192              8.5                  8.3832               88.0616              0                    64.2833              132.0979             135.2049             -0.0035              0.182                0.0831               3.1885               1.5588               2.7041               118.3149             5370.6157            19.0877              0.176                12.2452              4.5674               2.681                4.1791               
4714.1404            26.9483              32.824               37.1471              42.9177              46.4943              8.5                  8.4267               85.2574              0.0127               63.8736              132.5266             127.5894             -0.0042              0.1734               0.0947               3.1776               1.6                  2.699                115.9109             5400.001             17.9479              0.1623               11.2174              4.2573               2.6348               4.2158               
