~VERSION INFORMATION
VERS.                 2.0:   CWLS LOG ASCII STANDARD VERSION 2.0
WRAP.                 YES:   MULTIPLE LINES PER DEPTH STEP
~WELL INFORMATION
#MNEM.UNIT       DATA           DESCRIPTION MNEMONIC
#---------    -------------   --------------------------
STRT.      4199.9428    : 
STOP.      5050.03    : 
STEP.      0.1524    : 
NULL.      -999.0 : 
COMP.      SONATRACH EXPLORATION    : COMPANY
WELL.      Test    : WELL
FLD .      BERKINE     : FIELD
LOC .      X = 666666.0 Y = 7777777.0   : LOCATION
PROV.      ENF-16    : PROVINCE
CNTY.      ENF-16    : 
STAT.      ENF-16    : 
CTRY.      Algeria    : 
SRVC.      SCH    : SERVICE COMPANY
UWI .      W-1     : UNIQUE WELL ID
~CURVE INFORMATION
#MNEM          UNIT     API CODE   Curve Type Comments
#---------- ---------- ----------  ---------- --------
 DEPTH               .M                    : The Depth
 AT10                .ohm.m                :ShalRes    (AIT-M)                 (3in)                   Array Induction Two Foot Resistivity A10
 AT20                .ohm.m                :ShalRes    (AIT-M)                 (3in)                   Array Induction Two Foot Resistivity A20
 AT30                .ohm.m                :MedRes     (AIT-M)                 (3in)                   Array Induction Two Foot Resistivity A30
 AT60                .ohm.m                :MedRes     (AIT-M)                 (3in)                   Array Induction Two Foot Resistivity A60
 AT90                .ohm.m                :XDeepRes   (AIT-M)                 (3in)                   Array Induction Two Foot Resistivity A90
 BS                  .in                   :(Borehole)              (6in)                   Bit Size
 CALI                .in                   :Caliper    (HDRS-H)                (1in)                   Caliper
 CGR                 .gAPI                 :GammaRay   (HNGS-BA)               (6in)                   Gamma Ray Contribution from Thorium and Potassium
 DSOZ                .in                   :(HDRS-H)                (2in)                   Standard Resolution Density Standoff
 DTCO                .us/ft                :Sonic      (DSST-B)                (6in)                   Delta-T Compressional
 DTSM                .us/ft                :ShearSonic (DSST-B)                (6in)                   Delta-T Shear
 GR_CAL              .gAPI                 :GammaRay   (EDTC-B)                (6in)                   Calibrated Gamma Ray
 HDRA                .g/cm3                :Drho       (HDRS-H)                (2in)                   Density Standoff Correction
 HDRB                .g/cm3                :(HDRS-H)                (2in)                   Difference Between Bulk Density (RHOZ) and Apparent Density from Back Scatter Monosensor Inversion (RHBA)
 HPRA                .                     :(HDRS-H)                (2in)                   Photoelectric Factor Correction
 PEFZ                .B/E                  :PEF        (HDRS-H)                (2in)                   Standard Resolution Formation Photoelectric Factor
 POTA                .%                    :Spectral   (HNGS-BA)               (6in)                   Potassium Concentration
 RHOZ                .g/cm3                :Density    (HDRS-H)                (2in)                   Standard Resolution Formation Density
 SGR                 .gAPI                 :GammaRay   (HNGS-BA)               (6in)                   Spectroscopy Gamma Ray
 TENS                .lbf                  :Tension    (WLWorkflow)            (6in)                   Cable Tension
 THOR                .ppm                  :Spectral   (HNGS-BA)               (6in)                   Thorium Concentration
 TNPH                .m3/m3                :Neutron    (HGNS-H)                (6in)                   Thermal Neutron Porosity (Ratio Method) in Selected Lithology
 TPRA                .                     :Temp       (HNGS-BA)               (6in)                   Thorium/Potassium Ratio
 TURA                .                     :Temp       (HNGS-BA)               (6in)                   Thorium/Uranium Ratio
 UPRA                .PPM                  :Spectral   (HNGS-BA)               (6in)                   Uranium/Potassium Ratio
 URAN                .ppm                  :Spectral   (HNGS-BA)               (6in)                   Uranium Concentration
~A Log data section
# ...
4901.7448            28.7793              34.1576              35.2378              35.6512              35.4976              8.5                  8.4267               107.168              0.0131               64.686               127.5223             122.3296             0.0019               0.1771               0.0627               3.424                2.1537               2.74                 120.6003             5599.9233            21.7087              0.1791               10.0796              10.5436              0.956                2.0589               
4901.8972            27.029               32.3567              33.257               33.6134              33.5698              8.5                  8.4158               107.1249             0.0131               65.7227              128.0236             119.349              0.0016               0.1808               0.074                3.4653               2.183                2.7404               122.5319             5570.0015            21.5233              0.1855               9.8593               9.2078               1.0707               2.3375               
4902.0496            26.853               32.3715              33.2608              33.9598              33.5515              8.5                  8.4049               106.3418             0.0327               65.237               127.2999             125.4318             -0.0032              0.159                0.1112               3.5308               2.0956               2.719                120.8248             5599.5391            21.7845              0.1811               10.3954              9.1647               1.1343               2.377                
4902.202             27.2403              32.8462              33.5928              33.6937              33.986               8.5                  8.394                108.8846             0.0389               65.3954              127.1667             130.955              -0.0052              0.1441               0.1429               3.5738               2.1536               2.7065               122.0563             5574.1533            22.2594              0.1843               10.336               10.0758              1.0258               2.2092               
4902.3544            27.8916              33.3434              34.1645              33.8558              34.371               8.5                  8.4267               105.0486             0.0389               64.7527              126.861              127.8524             -0.0048              0.1455               0.1267               3.5252               2.1317               2.7087               119.5466             5545.25              21.159               0.1766               9.9258               9.1191               1.0885               2.3203               
4902.5068            28.2819              33.9851              34.9418              34.9145              35.5178              8.5                  8.4049               103.6436             0.0163               64.9148              126.7019             122.2139             -0.0016              0.1644               0.0744               3.4149               2.1342               2.7263               120.9939             5585.4614            20.6944              0.1738               9.6965               7.883                1.23                 2.6252               
4902.6592            30.1441              35.4899              36.0981              36.1403              36.4963              8.5                  8.4267               103.2447             0.0076               64.5262              127.7782             118.6991             0.0001               0.1773               0.0425               3.3346               2.1604               2.7385               122.4217             5596.4614            20.4136              0.1664               9.4492               6.9344               1.3626               2.9438               
4902.8116            29.0267              34.5663              35.2645              35.621               35.9782              8.5                  8.4158               101.3787             0.0364               64.7947              128.5825             128.0447             -0.0027              0.1654               0.0834               3.3613               2.1641               2.728                123.3695             5622.231             19.7944              0.1705               9.1468               6.2322               1.4677               3.1762               
4902.964             28.4382              33.1311              33.6468              34.5762              34.4054              8.5                  8.4122               101.3629             0.0685               64.6199              129.6738             126.6631             -0.0058              0.147                0.1556               3.4437               2.2226               2.7106               121.8524             5619.4614            19.4469              0.1828               8.7497               6.0078               1.4564               3.2369               
4903.1164            27.7131              33.2336              33.5884              34.5621              34.4234              8.5                  8.434                102.2522             0.0794               65.4819              128.8704             129.4402             -0.0083              0.1415               0.1862               3.4925               2.22                 2.7034               123.6511             5585.2319            19.7466              0.1866               8.8947               5.8166               1.5292               3.3949               
4903.2688            27.2184              32.5122              33.2772              33.8314              33.6911              8.5                  8.4194               103.9918             0.054                65.5791              129.7043             127.2058             -0.0058              0.1588               0.1476               3.4797               2.1926               2.7161               124.3283             5586.3066            20.4642              0.2035               9.3333               6.0899               1.5326               3.3604               
4903.4212            26.9468              32.0729              32.9624              33.5164              33.0043              8.5                  8.4122               100.9193             0.0243               65.5066              130.2579             132.0865             -0.0039              0.1769               0.0839               3.4321               2.1278               2.7294               124.55               5612.3081            19.8595              0.2009               9.3332               5.0966               1.8312               3.8966               
4903.5736            26.729               31.7708              32.5709              32.9708              32.5707              8.5                  8.4049               104.5311             0                    65.672               129.6972             136.3849             -0.0019              0.184                0.0533               3.3892               2.2594               2.735                124.9317             5578.3843            20.2458              0.1993               8.9607               5.8987               1.5191               3.4322               
4903.726             26.6036              31.4444              31.9328              32.4866              31.8467              8.5                  8.4122               104.3562             0.0147               65.8669              130.0216             134.7042             -0.003               0.1757               0.0698               3.3799               2.3124               2.7286               122.938              5581.2305            19.8794              0.1914               8.5967               6.2333               1.3792               3.1892               
4903.8784            26.7345              31.2528              31.7052              31.6306              31.3422              8.5                  8.4267               102.8917             0.0206               65.8601              129.5285             132.6978             -0.0039              0.1679               0.0865               3.3954               2.3038               2.7235               120.8597             5583.4604            19.4608              0.1923               8.4471               6.5655               1.2866               2.9641               
