~VERSION INFORMATION
VERS.                 2.0:   CWLS LOG ASCII STANDARD VERSION 2.0
WRAP.                 YES:   MULTIPLE LINES PER DEPTH STEP
~WELL INFORMATION
#MNEM.UNIT       DATA           DESCRIPTION MNEMONIC
#---------    -------------   --------------------------
STRT.      4199.9428    : 
STOP.      5050.03    : 
STEP.      0.1524    : 
NULL.      -999.0 : 
COMP.      SONATRACH EXPLORATION    : COMPANY
WELL.      Test    : WELL
FLD .      BERKINE     : FIELD
LOC .      X = 666666.0 Y = 7777777.0   : LOCATION
PROV.      ENF-16    : PROVINCE
CNTY.      ENF-16    : 
STAT.      ENF-16    : 
CTRY.      Algeria    : 
SRVC.      SCH    : SERVICE COMPANY
UWI .      W-1     : UNIQUE WELL ID
~CURVE INFORMATION
#MNEM          UNIT     API CODE   Curve Type Comments
#---------- ---------- ----------  ---------- --------
 DEPTH               .M                    : The Depth
 AT10                .ohm.m                :ShalRes    (AIT-M)                 (3in)                   Array Induction Two Foot Resistivity A10
 AT20                .ohm.m                :ShalRes    (AIT-M)                 (3in)                   Array Induction Two Foot Resistivity A20
 AT30                .ohm.m                :MedRes     (AIT-M)                 (3in)                   Array Induction Two Foot Resistivity A30
 AT60                .ohm.m                :MedRes     (AIT-M)                 (3in)                   Array Induction Two Foot Resistivity A60
 AT90                .ohm.m                :XDeepRes   (AIT-M)                 (3in)                   Array Induction Two Foot Resistivity A90
 BS                  .in                   :(Borehole)              (6in)                   Bit Size
 CALI                .in                   :Caliper    (HDRS-H)                (1in)                   Caliper
 CGR                 .gAPI                 :GammaRay   (HNGS-BA)               (6in)                   Gamma Ray Contribution from Thorium and Potassium
 DSOZ                .in                   :(HDRS-H)                (2in)                   Standard Resolution Density Standoff
 DTCO                .us/ft                :Sonic      (DSST-B)                (6in)                   Delta-T Compressional
 DTSM                .us/ft                :ShearSonic (DSST-B)                (6in)                   Delta-T Shear
 GR_CAL              .gAPI                 :GammaRay   (EDTC-B)                (6in)                   Calibrated Gamma Ray
 HDRA                .g/cm3                :Drho       (HDRS-H)                (2in)                   Density Standoff Correction
 HDRB                .g/cm3                :(HDRS-H)                (2in)                   Difference Between Bulk Density (RHOZ) and Apparent Density from Back Scatter Monosensor Inversion (RHBA)
 HPRA                .                     :(HDRS-H)                (2in)                   Photoelectric Factor Correction
 PEFZ                .B/E                  :PEF        (HDRS-H)                (2in)                   Standard Resolution Formation Photoelectric Factor
 POTA                .%                    :Spectral   (HNGS-BA)               (6in)                   Potassium Concentration
 RHOZ                .g/cm3                :Density    (HDRS-H)                (2in)                   Standard Resolution Formation Density
 SGR                 .gAPI                 :GammaRay   (HNGS-BA)               (6in)                   Spectroscopy Gamma Ray
 TENS                .lbf                  :Tension    (WLWorkflow)            (6in)                   Cable Tension
 THOR                .ppm                  :Spectral   (HNGS-BA)               (6in)                   Thorium Concentration
 TNPH                .m3/m3                :Neutron    (HGNS-H)                (6in)                   Thermal Neutron Porosity (Ratio Method) in Selected Lithology
 TPRA                .                     :Temp       (HNGS-BA)               (6in)                   Thorium/Potassium Ratio
 TURA                .                     :Temp       (HNGS-BA)               (6in)                   Thorium/Uranium Ratio
 UPRA                .PPM                  :Spectral   (HNGS-BA)               (6in)                   Uranium/Potassium Ratio
 URAN                .ppm                  :Spectral   (HNGS-BA)               (6in)                   Uranium Concentration
~A Log data section
# ...
4567.9888            15.4517              17.0788              17.4102              18.2269              17.3615              8.5                  8.3832               51.6341              0.0111               65.6566              158.7741             80.3515              -0.0016              0.1725               0.0551               2.9368               1.1852               2.6194               71.8012              5209.999             9.5994               0.1125               8.0996               3.3883               2.3905               2.8331               
4568.1412            15.2044              18.932               19.3586              20.2826              19.0016              8.5                  8.4122               57.7688              0.0838               66.5446              162.7029             82.2661              -0.0046              0.1617               0.0956               2.9615               1.3117               2.6115               77.4641              5185.6006            10.8236              0.1246               8.2518               3.8806               2.1264               2.7891               
4568.2936            15.5002              17.5779              18.2498              19.097               18.344               8.5                  8.4485               63.605               0.0838               67.3679              154.2712             88.5715              -0.0051              0.169                0.1217               3.0174               1.4763               2.6194               85.3739              5203.5337            11.7294              0.1403               7.9454               3.8657               2.0554               3.0342               
4568.446             14.2711              14.5751              15.522               16.4173              15.9489              8.5                  8.4267               70.4942              0.0875               67.3179              155.0202             92.1825              -0.0042              0.1806               0.1194               3.0673               1.6226               2.6319               96.2773              5191.0005            13.0789              0.1507               8.0603               3.7524               2.1481               3.4855               
4568.5984            13.1103              12.8084              13.5771              14.2674              14.1306              8.5                  8.4158               78.2944              0.0272               66.9019              160.0649             96.8558              -0.0031              0.1866               0.1089               3.0602               1.7285               2.6412               102.9821             5186.8008            14.9577              0.1567               8.6536               4.5157               1.9164               3.3124               
4568.7508            12.6751              12.3993              13.1182              13.8448              14.0311              8.5                  8.4267               78.4715              0.0272               66.2074              157.5247             95.2627              -0.0038              0.1803               0.1137               2.9867               1.7079               2.6407               102.4529             5202.6006            15.1351              0.1473               8.8617               4.7396               1.8697               3.1933               
4568.9032            12.4953              12.6673              13.4317              14.1909              14.6634              8.5                  8.4376               74.0725              0.0411               66.2632              151.5403             96.2229              -0.0049              0.1751               0.1095               2.8773               1.6687               2.6418               96.2325              5190.2856            13.9556              0.1366               8.363                4.8018               1.7416               2.9063               
4569.0556            12.0355              12.5653              13.1273              13.7665              14.2244              8.5                  8.463                72.109               0.0355               65.9416              155.8856             100.6455             -0.0065              0.169                0.1101               2.8206               1.6787               2.6392               95.1247              5206.9326            13.2685              0.1331               7.9042               4.3309               1.825                3.0636               
4569.208             11.3149              11.6355              11.9971              12.6656              13.3175              8.5                  8.4557               71.5824              0.0665               65.9357              144.3825             107.4387             -0.0082              0.1584               0.1154               2.8294               1.6598               2.6273               94.9737              5210.6665            13.2103              0.12                 7.959                4.243                1.8758               3.1134               
4569.3604            10.7121              11.0296              11.3056              11.8527              12.4582              8.5                  8.463                71.4789              0.0589               65.2376              140.2798             106.2018             -0.0069              0.1567               0.1072               2.8405               1.5741               2.6209               93.6856              5193.7339            13.6785              0.1132               8.6897               4.5565               1.9071               3.002                
4569.5128            10.6125              10.962               11.0576              11.5706              11.7605              8.5                  8.434                67.6654              0.0349               65.1741              136.177              103.7439             -0.0049              0.1586               0.0929               2.8163               1.4993               2.618                88.6789              5182.2666            12.8951              0.1048               8.6008               4.6685               1.8423               2.7622               
4569.6652            10.4737              10.8997              10.8222              11.1474              11.2305              8.5                  8.4158               64.4336              0                    64.7957              144.7411             95.695               -0.0025              0.1697               0.0584               2.744                1.4309               2.6262               85.5935              5203.6011            12.2605              0.1018               8.5683               4.576                1.8724               2.6793               
4569.8176            10.6097              11.2713              11.2928              11.4834              11.4848              8.5                  8.4158               62.1139              0                    64.0492              141.8046             93.0689              -0.0025              0.1751               0.0383               2.6887               1.3955               2.6299               85.9595              5182.4668            11.7247              0.1                  8.4017               3.9112               2.1481               2.9977               
4569.97              12.3524              12.964               13.1127              13.3143              13.1802              8.5                  8.4412               64.7561              0                    63.5193              132.2763             90.9341              -0.0009              0.1899               0.0001               2.6476               1.4211               2.6426               89.5762              5171.9277            12.421               0.0938               8.7402               3.9687               2.2023               3.1297               
4570.1224            16.5288              17.0102              17.5183              17.2984              16.7292              8.5                  8.4485               62.544               0                    62.1281              130.7124             83.2177              -0.0004              0.1952               -0.004               2.6519               1.362                2.6453               86.0818              5168.4004            12.059               0.0904               8.854                3.954                2.2392               3.0498               
