~VERSION INFORMATION
VERS.                 2.0:   CWLS LOG ASCII STANDARD VERSION 2.0
WRAP.                 YES:   MULTIPLE LINES PER DEPTH STEP
~WELL INFORMATION
#MNEM.UNIT       DATA           DESCRIPTION MNEMONIC
#---------    -------------   --------------------------
STRT.      4199.9428    : 
STOP.      5050.03    : 
STEP.      0.1524    : 
NULL.      -999.0 : 
COMP.      SONATRACH EXPLORATION    : COMPANY
WELL.      Test    : WELL
FLD .      BERKINE     : FIELD
LOC .      X = 666666.0 Y = 7777777.0   : LOCATION
PROV.      ENF-16    : PROVINCE
CNTY.      ENF-16    : 
STAT.      ENF-16    : 
CTRY.      Algeria    : 
SRVC.      SCH    : SERVICE COMPANY
UWI .      W-1     : UNIQUE WELL ID
~CURVE INFORMATION
#MNEM          UNIT     API CODE   Curve Type Comments
#---------- ---------- ----------  ---------- --------
 DEPTH               .M                    : The Depth
 AT10                .ohm.m                :ShalRes    (AIT-M)                 (3in)                   Array Induction Two Foot Resistivity A10
 AT20                .ohm.m                :ShalRes    (AIT-M)                 (3in)                   Array Induction Two Foot Resistivity A20
 AT30                .ohm.m                :MedRes     (AIT-M)                 (3in)                   Array Induction Two Foot Resistivity A30
 AT60                .ohm.m                :MedRes     (AIT-M)                 (3in)                   Array Induction Two Foot Resistivity A60
 AT90                .ohm.m                :XDeepRes   (AIT-M)                 (3in)                   Array Induction Two Foot Resistivity A90
 BS                  .in                   :(Borehole)              (6in)                   Bit Size
 CALI                .in                   :Caliper    (HDRS-H)                (1in)                   Caliper
 CGR                 .gAPI                 :GammaRay   (HNGS-BA)               (6in)                   Gamma Ray Contribution from Thorium and Potassium
 DSOZ                .in                   :(HDRS-H)                (2in)                   Standard Resolution Density Standoff
 DTCO                .us/ft                :Sonic      (DSST-B)                (6in)                   Delta-T Compressional
 DTSM                .us/ft                :ShearSonic (DSST-B)                (6in)                   Delta-T Shear
 GR_CAL              .gAPI                 :GammaRay   (EDTC-B)                (6in)                   Calibrated Gamma Ray
 HDRA                .g/cm3                :Drho       (HDRS-H)                (2in)                   Density Standoff Correction
 HDRB                .g/cm3                :(HDRS-H)                (2in)                   Difference Between Bulk Density (RHOZ) and Apparent Density from Back Scatter Monosensor Inversion (RHBA)
 HPRA                .                     :(HDRS-H)                (2in)                   Photoelectric Factor Correction
 PEFZ                .B/E                  :PEF        (HDRS-H)                (2in)                   Standard Resolution Formation Photoelectric Factor
 POTA                .%                    :Spectral   (HNGS-BA)               (6in)                   Potassium Concentration
 RHOZ                .g/cm3                :Density    (HDRS-H)                (2in)                   Standard Resolution Formation Density
 SGR                 .gAPI                 :GammaRay   (HNGS-BA)               (6in)                   Spectroscopy Gamma Ray
 TENS                .lbf                  :Tension    (WLWorkflow)            (6in)                   Cable Tension
 THOR                .ppm                  :Spectral   (HNGS-BA)               (6in)                   Thorium Concentration
 TNPH                .m3/m3                :Neutron    (HGNS-H)                (6in)                   Thermal Neutron Porosity (Ratio Method) in Selected Lithology
 TPRA                .                     :Temp       (HNGS-BA)               (6in)                   Thorium/Potassium Ratio
 TURA                .                     :Temp       (HNGS-BA)               (6in)                   Thorium/Uranium Ratio
 UPRA                .PPM                  :Spectral   (HNGS-BA)               (6in)                   Uranium/Potassium Ratio
 URAN                .ppm                  :Spectral   (HNGS-BA)               (6in)                   Uranium Concentration
~A Log data section
# ...
4997.7568            21.8636              19.769               18.254               17.014               16.6343              8.5                  8.1727               -999                 0.0931               -999                 -999                 -999                 0.0518               0.2916               0.208                4.3513               -999                 2.7574               -999                 4805.5293            -999                 0.2493               -999                 -999                 -999                 -999                 
4997.9092            21.8781              19.758               18.4267              17.13                16.6812              8.5                  8.18                 -999                 0.0983               -999                 -999                 -999                 0.0575               0.2948               0.2108               4.3805               -999                 2.7579               -999                 4727.4443            -999                 0.2481               -999                 -999                 -999                 -999                 
4998.0616            21.8755              19.7097              18.4102              17.2169              16.7477              8.5                  8.1727               -999                 0.0931               -999                 -999                 -999                 0.0576               0.2831               0.2022               4.3996               -999                 2.7466               -999                 4736.167             -999                 0.2559               -999                 -999                 -999                 -999                 
4998.214             21.8447              19.6595              18.3813              17.2766              16.6917              8.5                  8.18                 -999                 0.0907               -999                 -999                 -999                 0.0579               0.2751               0.1972               4.4236               -999                 2.742                -999                 4713.8345            -999                 0.2645               -999                 -999                 -999                 -999                 
4998.3664            21.8621              19.366               18.185               17.1671              16.562               8.5                  8.1727               -999                 0.0875               -999                 -999                 -999                 0.0536               0.2695               0.1899               4.4367               -999                 2.7404               -999                 4749.7769            -999                 0.2643               -999                 -999                 -999                 -999                 
4998.5188            21.9895              19.5087              18.3791              17.2804              16.5896              8.5                  8.1727               -999                 0.0886               -999                 -999                 -999                 0.0499               0.2739               0.1828               4.436                -999                 2.7476               -999                 4699.5547            -999                 0.2542               -999                 -999                 -999                 -999                 
4998.6712            22.2786              19.7279              18.5753              17.3183              16.6986              8.5                  8.1727               -999                 0.0894               -999                 -999                 -999                 0.0496               0.2799               0.1801               4.4131               -999                 2.7547               -999                 4681.833             -999                 0.2427               -999                 -999                 -999                 -999                 
4998.8236            22.2925              19.8268              18.556               16.8656              16.2923              8.5                  8.18                 -999                 0.0874               -999                 -999                 -999                 0.0489               0.2824               0.1863               4.3835               -999                 2.7567               -999                 4713.1104            -999                 -999                 -999                 -999                 -999                 -999                 
4998.976             22.2915              19.4635              18.109               16.2641              15.7256              8.5                  8.1763               -999                 0.0817               -999                 -999                 -999                 0.0448               0.2796               0.1874               4.3595               -999                 2.7521               -999                 4670.9453            -999                 -999                 -999                 -999                 -999                 -999                 
4999.1284            22.2015              19.3088              17.6786              15.7767              15.1392              8.5                  8.1872               -999                 0.0774               -999                 -999                 -999                 0.0374               0.2755               0.1788               4.3519               -999                 2.7473               -999                 4697.0005            -999                 -999                 -999                 -999                 -999                 -999                 
4999.2808            21.7672              19.2753              17.3767              15.4125              14.4252              8.5                  8.1872               -999                 0.0728               -999                 -999                 -999                 0.0326               0.2659               0.1601               4.3499               -999                 2.7403               -999                 4704.0015            -999                 -999                 -999                 -999                 -999                 -999                 
4999.4332            21.6838              19.1933              16.9731              15.0489              13.9178              8.5                  8.1727               -999                 0.0684               -999                 -999                 -999                 0.0315               0.2535               0.1469               4.3499               -999                 2.7332               -999                 4675.1675            -999                 -999                 -999                 -999                 -999                 -999                 
4999.5856            20.6528              18.4084              16.637               15.0889              13.6788              8.5                  8.1727               -999                 0.0668               -999                 -999                 -999                 0.0337               0.2465               0.1472               4.3572               -999                 2.7311               -999                 4687.6104            -999                 -999                 -999                 -999                 -999                 -999                 
4999.738             20.0952              18.7871              17.3493              16.0704              14.3014              8.5                  8.18                 -999                 0.0579               -999                 -999                 -999                 0.0272               0.2363               0.1401               4.3579               -999                 2.7222               -999                 4684.3325            -999                 -999                 -999                 -999                 -999                 -999                 
4999.8904            22.6826              24.7343              22.3547              19.4844              16.6548              8.5                  8.1872               -999                 0.0628               -999                 -999                 -999                 0.0305               0.2455               0.1399               4.3744               -999                 2.7295               -999                 4682.1118            -999                 -999                 -999                 -999                 -999                 -999                 
