~VERSION INFORMATION
VERS.                 2.0:   CWLS LOG ASCII STANDARD VERSION 2.0
WRAP.                 YES:   MULTIPLE LINES PER DEPTH STEP
~WELL INFORMATION
#MNEM.UNIT       DATA           DESCRIPTION MNEMONIC
#---------    -------------   --------------------------
STRT.      4199.9428    : 
STOP.      5050.03    : 
STEP.      0.1524    : 
NULL.      -999.0 : 
COMP.      SONATRACH EXPLORATION    : COMPANY
WELL.      Test    : WELL
FLD .      BERKINE     : FIELD
LOC .      X = 666666.0 Y = 7777777.0   : LOCATION
PROV.      ENF-16    : PROVINCE
CNTY.      ENF-16    : 
STAT.      ENF-16    : 
CTRY.      Algeria    : 
SRVC.      SCH    : SERVICE COMPANY
UWI .      W-1     : UNIQUE WELL ID
~CURVE INFORMATION
#MNEM          UNIT     API CODE   Curve Type Comments
#---------- ---------- ----------  ---------- --------
 DEPTH               .M                    : The Depth
 AT10                .ohm.m                :ShalRes    (AIT-M)                 (3in)                   Array Induction Two Foot Resistivity A10
 AT20                .ohm.m                :ShalRes    (AIT-M)                 (3in)                   Array Induction Two Foot Resistivity A20
 AT30                .ohm.m                :MedRes     (AIT-M)                 (3in)                   Array Induction Two Foot Resistivity A30
 AT60                .ohm.m                :MedRes     (AIT-M)                 (3in)                   Array Induction Two Foot Resistivity A60
 AT90                .ohm.m                :XDeepRes   (AIT-M)                 (3in)                   Array Induction Two Foot Resistivity A90
 BS                  .in                   :(Borehole)              (6in)                   Bit Size
 CALI                .in                   :Caliper    (HDRS-H)                (1in)                   Caliper
 CGR                 .gAPI                 :GammaRay   (HNGS-BA)               (6in)                   Gamma Ray Contribution from Thorium and Potassium
 DSOZ                .in                   :(HDRS-H)                (2in)                   Standard Resolution Density Standoff
 DTCO                .us/ft                :Sonic      (DSST-B)                (6in)                   Delta-T Compressional
 DTSM                .us/ft                :ShearSonic (DSST-B)                (6in)                   Delta-T Shear
 GR_CAL              .gAPI                 :GammaRay   (EDTC-B)                (6in)                   Calibrated Gamma Ray
 HDRA                .g/cm3                :Drho       (HDRS-H)                (2in)                   Density Standoff Correction
 HDRB                .g/cm3                :(HDRS-H)                (2in)                   Difference Between Bulk Density (RHOZ) and Apparent Density from Back Scatter Monosensor Inversion (RHBA)
 HPRA                .                     :(HDRS-H)                (2in)                   Photoelectric Factor Correction
 PEFZ                .B/E                  :PEF        (HDRS-H)                (2in)                   Standard Resolution Formation Photoelectric Factor
 POTA                .%                    :Spectral   (HNGS-BA)               (6in)                   Potassium Concentration
 RHOZ                .g/cm3                :Density    (HDRS-H)                (2in)                   Standard Resolution Formation Density
 SGR                 .gAPI                 :GammaRay   (HNGS-BA)               (6in)                   Spectroscopy Gamma Ray
 TENS                .lbf                  :Tension    (WLWorkflow)            (6in)                   Cable Tension
 THOR                .ppm                  :Spectral   (HNGS-BA)               (6in)                   Thorium Concentration
 TNPH                .m3/m3                :Neutron    (HGNS-H)                (6in)                   Thermal Neutron Porosity (Ratio Method) in Selected Lithology
 TPRA                .                     :Temp       (HNGS-BA)               (6in)                   Thorium/Potassium Ratio
 TURA                .                     :Temp       (HNGS-BA)               (6in)                   Thorium/Uranium Ratio
 UPRA                .PPM                  :Spectral   (HNGS-BA)               (6in)                   Uranium/Potassium Ratio
 URAN                .ppm                  :Spectral   (HNGS-BA)               (6in)                   Uranium Concentration
~A Log data section
# ...
4282.2388            22.5484              33.1004              25.676               44.9775              56.4295              8.5                  -999                 95.4684              -999                 63.5832              121.8805             122.3294             -999                 -999                 -999                 -999                 1.6976               -999                 118.072              -999                 20.6489              -999                 12.1639              6.1759               1.9696               3.3435               
4282.3912            25.3028              31.1432              22.8411              43.4459              53.7662              8.5                  -999                 95.7479              -999                 63.2172              121.9199             133.033              -999                 -999                 -999                 -999                 1.8009               -999                 118.3221             -999                 20.1334              -999                 11.1796              6.2748               1.7817               3.2086               
4282.5436            37.1434              33.5858              24.2617              28.2593              62.0478              8.5                  -999                 93.5385              -999                 63.4959              126.3035             131.152              -999                 -999                 -999                 -999                 1.7258               -999                 115.0715             -999                 19.8653              -999                 11.511               6.5642               1.7536               3.0263               
4282.696             57.171               32.5462              21.9675              18.4796              53.2905              8.5                  -999                 94.792               -999                 64.6192              121.8812             133.4153             -999                 -999                 -999                 -999                 1.788                -999                 117.0753             -999                 19.9026              -999                 11.1312              6.6147               1.6828               3.0088               
4282.8484            93.4551              32.5634              18.2939              12.2112              39.2617              8.5                  -999                 100.257              -999                 64.1579              119.8781             128.8013             -999                 -999                 -999                 -999                 1.9245               -999                 119.9244             -999                 20.8545              -999                 10.8364              7.6645               1.4138               2.7209               
4283.0008            119.873              24.2173              14.4438              8.9393               26.4518              8.5                  -999                 106.1396             -999                 64.7914              120.1287             131.7227             -999                 -999                 -999                 -999                 2.0338               -999                 125.9551             -999                 22.0991              -999                 10.8657              8.0765               1.3454               2.7362               
4283.1532            221.6134             20.8424              11.9485              7.6181               17.294               8.5                  -999                 107.6365             -999                 64.6995              121.2783             136.7                -999                 -999                 -999                 -999                 2.0706               -999                 128.6445             -999                 22.3636              -999                 10.8006              8.0944               1.3343               2.7629               
4283.3056            432.6742             22.3114              12.4939              7.8744               15.1317              8.5                  -999                 107.8737             -999                 65.5684              123.7823             137.5138             -999                 -999                 -999                 -999                 2.0422               -999                 128.3946             -999                 22.6057              -999                 11.0692              8.0855               1.369                2.7959               
4283.458             675.3071             35.9685              14.3062              8.9783               11.1632              8.5                  -999                 104.2698             -999                 65.1163              124.2101             143.2554             -999                 -999                 -999                 -999                 2.0182               -999                 127.2836             -999                 21.5919              -999                 10.6988              6.9229               1.5454               3.1189               
4283.6104            416.5444             32.8443              11.8187              8.267                7.2956               8.5                  -999                 103.3181             -999                 64.7148              125.5363             138.4185             -999                 -999                 -999                 -999                 1.9605               -999                 125.9318             -999                 21.6243              -999                 11.0299              6.8885               1.6012               3.1392               
4283.7628            148.0862             11.8976              7.1905               6.3558               4.589                8.5                  -999                 101.5114             -999                 64.6761              127.1329             136.7884             -999                 -999                 -999                 -999                 1.921                -999                 124.5438             -999                 21.2772              -999                 11.0764              6.8484               1.6174               3.1069               
4283.9152            49.5475              7.6328               6.2004               5.0999               3.754                8.5                  -999                 99.1629              -999                 65.5031              128.234              131.3291             -999                 -999                 -999                 -999                 1.8933               -999                 125.3454             -999                 20.6866              -999                 10.9261              5.9427               1.8386               3.481                
4284.0676            55.5844              15.9745              9.2778               5.0213               3.2397               8.5                  -999                 102.9971             -999                 65.8772              129.2327             134.4829             -999                 -999                 -999                 -999                 1.8734               -999                 128.6366             -999                 22.0316              -999                 11.7601              6.1782               1.9035               3.5661               
4284.22              40.5932              14.5586              10.5147              6.7773               4.1351               8.5                  -999                 106.2239             -999                 67.8604              127.6315             139.3906             -999                 -999                 -999                 -999                 1.9321               -999                 131.7687             -999                 22.7218              -999                 11.7599              6.3687               1.8465               3.5677               
4284.3724            21.1661              9.5153               5.9753               4.9512               3.3974               8.5                  -999                 107.4985             -999                 68.9171              125.6452             142.1683             -999                 -999                 -999                 -999                 1.8336               -999                 132.1743             -999                 23.7066              -999                 12.9287              6.6729               1.9375               3.5527               
